[{"date":"2020-01-12","alerts":[{"name":"נחל עוז","englishName":"Nachal Oz","lat":31.4727,"lon":34.4977,"alertTypeId":1,"areaNameHe":"עוטף עזה","areaNameEn":"Gaza Envelope","timeStamp":"2020-01-12 12:19:01"}]},{"date":"2020-01-15","alerts":[{"name":"נחל עוז","englishName":"Nachal Oz","lat":31.4727,"lon":34.4977,"alertTypeId":1,"areaNameHe":"עוטף עזה","areaNameEn":"Gaza Envelope","timeStamp":"2020-01-15 15:24:17"},{"name":"סעד","englishName":"Sa'ad","lat":31.4702,"lon":34.5344,"alertTypeId":1,"areaNameHe":"עוטף עזה","areaNameEn":"Gaza Envelope","timeStamp":"2020-01-15 15:24:22"},{"name":"נחל עוז","englishName":"Nachal Oz","lat":31.4727,"lon":34.4977,"alertTypeId":1,"areaNameHe":"עוטף עזה","areaNameEn":"Gaza Envelope","timeStamp":"2020-01-15 15:24:42"},{"name":"כפר עזה","englishName":"Kfar Azza","lat":31.4834,"lon":34.5323,"alertTypeId":1,"areaNameHe":"עוטף עזה","areaNameEn":"Gaza Envelope","timeStamp":"2020-01-15 15:25:03"},{"name":"נחל עוז","englishName":"Nachal Oz","lat":31.4727,"lon":34.4977,"alertTypeId":1,"areaNameHe":"עוטף עזה","areaNameEn":"Gaza Envelope","timeStamp":"2020-01-15 15:25:03"},{"name":"סעד","englishName":"Sa'ad","lat":31.4702,"lon":34.5344,"alertTypeId":1,"areaNameHe":"עוטף עזה","areaNameEn":"Gaza Envelope","timeStamp":"2020-01-15 15:25:03"}]},{"date":"2020-01-23","alerts":[{"name":"מטווח ניר עם","englishName":"Nir Am Shooting Range","lat":31.5128,"lon":34.5543,"alertTypeId":1,"areaNameHe":"עוטף עזה","areaNameEn":"Gaza Envelope","timeStamp":"2020-01-23 20:15:03"}]},{"date":"2020-01-29","alerts":[{"name":"כיסופים","englishName":"Kissufim","lat":31.3745,"lon":34.399,"alertTypeId":1,"areaNameHe":"עוטף עזה","areaNameEn":"Gaza Envelope","timeStamp":"2020-01-29 21:11:23"}]},{"date":"2020-01-30","alerts":[{"name":"יד מרדכי","englishName":"Yad Mordechai","lat":31.587,"lon":34.5575,"alertTypeId":1,"areaNameHe":"עוטף עזה","areaNameEn":"Gaza Envelope","timeStamp":"2020-01-30 13:07:02"},{"name":"ניר עם","englishName":"Nir Am","lat":31.5184,"lon":34.5805,"alertTypeId":1,"areaNameHe":"עוטף עזה","areaNameEn":"Gaza Envelope","timeStamp":"2020-01-30 23:28:16"},{"name":"שדרות, איבים","englishName":"Sderot, Ibim","lat":31.5313,"lon":34.5984,"alertTypeId":1,"areaNameHe":"עוטף עזה","areaNameEn":"Gaza Envelope","timeStamp":"2020-01-30 23:28:16"},{"name":"גבים, מכללת ספיר","englishName":"Gavim, Sapir College","lat":31.5071,"lon":34.5974,"alertTypeId":1,"areaNameHe":"עוטף עזה","areaNameEn":"Gaza Envelope","timeStamp":"2020-01-30 23:28:26"}]},{"date":"2020-01-31","alerts":[{"name":"שדרות, איבים","englishName":"Sderot, Ibim","lat":31.5313,"lon":34.5984,"alertTypeId":1,"areaNameHe":"עוטף עזה","areaNameEn":"Gaza Envelope","timeStamp":"2020-01-31 20:21:35"},{"name":"גבים, מכללת ספיר","englishName":"Gavim, Sapir College","lat":31.5071,"lon":34.5974,"alertTypeId":1,"areaNameHe":"עוטף עזה","areaNameEn":"Gaza Envelope","timeStamp":"2020-01-31 20:22:01"},{"name":"ניר עם","englishName":"Nir Am","lat":31.5184,"lon":34.5805,"alertTypeId":1,"areaNameHe":"עוטף עזה","areaNameEn":"Gaza Envelope","timeStamp":"2020-01-31 20:22:01"},{"name":"שדרות, איבים","englishName":"Sderot, Ibim","lat":31.5313,"lon":34.5984,"alertTypeId":1,"areaNameHe":"עוטף עזה","areaNameEn":"Gaza Envelope","timeStamp":"2020-01-31 20:22:01"},{"name":"אור הנר","englishName":"Or HaNer","lat":31.5562,"lon":34.6023,"alertTypeId":1,"areaNameHe":"עוטף עזה","areaNameEn":"Gaza Envelope","timeStamp":"2020-01-31 20:22:01"},{"name":"ארז","englishName":"Erez","lat":31.5597,"lon":34.565,"alertTypeId":1,"areaNameHe":"עוטף עזה","areaNameEn":"Gaza Envelope","timeStamp":"2020-01-31 20:22:01"},{"name":"ניר יצחק","englishName":"Nir Itzhak","lat":31.236,"lon":34.3567,"alertTypeId":1,"areaNameHe":"עוטף עזה","areaNameEn":"Gaza Envelope","timeStamp":"2020-01-31 22:42:40"},{"name":"סופה","englishName":"Sufa","lat":31.2383,"lon":34.342,"alertTypeId":1,"areaNameHe":"עוטף עזה","areaNameEn":"Gaza Envelope","timeStamp":"2020-01-31 22:42:40"}]},{"date":"2020-02-01","alerts":[{"name":"נחל עוז","englishName":"Nachal Oz","lat":31.4727,"lon":34.4977,"alertTypeId":1,"areaNameHe":"עוטף עזה","areaNameEn":"Gaza Envelope","timeStamp":"2020-02-01 21:12:18"},{"name":"עלומים","englishName":"Alumim","lat":31.453,"lon":34.5147,"alertTypeId":1,"areaNameHe":"עוטף עזה","areaNameEn":"Gaza Envelope","timeStamp":"2020-02-01 21:12:18"}]},{"date":"2020-02-05","alerts":[{"name":"נתיבות","englishName":"Netivot","lat":31.4232,"lon":34.5953,"alertTypeId":1,"areaNameHe":"מערב הנגב","areaNameEn":"Western Negev","timeStamp":"2020-02-05 00:14:17"},{"name":"שרשרת","englishName":"Sharsheret","lat":31.4048,"lon":34.6044,"alertTypeId":1,"areaNameHe":"מערב הנגב","areaNameEn":"Western Negev","timeStamp":"2020-02-05 00:14:17"},{"name":"עלומים","englishName":"Alumim","lat":31.453,"lon":34.5147,"alertTypeId":1,"areaNameHe":"עוטף עזה","areaNameEn":"Gaza Envelope","timeStamp":"2020-02-05 00:14:21"}]},{"date":"2020-02-06","alerts":[{"name":"יתד","englishName":"Yated","lat":31.207,"lon":34.3261,"alertTypeId":1,"areaNameHe":"עוטף עזה","areaNameEn":"Gaza Envelope","timeStamp":"2020-02-06 09:13:31"}]},{"date":"2020-02-09","alerts":[{"name":"ניר עם","englishName":"Nir Am","lat":31.5184,"lon":34.5805,"alertTypeId":1,"areaNameHe":"עוטף עזה","areaNameEn":"Gaza Envelope","timeStamp":"2020-02-09 20:29:55"},{"name":"שדרות, איבים","englishName":"Sderot, Ibim","lat":31.5313,"lon":34.5984,"alertTypeId":1,"areaNameHe":"עוטף עזה","areaNameEn":"Gaza Envelope","timeStamp":"2020-02-09 20:29:55"}]},{"date":"2020-02-15","alerts":[{"name":"כיסופים","englishName":"Kissufim","lat":31.3745,"lon":34.399,"alertTypeId":1,"areaNameHe":"עוטף עזה","areaNameEn":"Gaza Envelope","timeStamp":"2020-02-15 20:12:29"}]},{"date":"2020-02-23","alerts":[{"name":"אזור תעשייה הדרומי אשקלון","englishName":"Ashkelon Southern Industrial Zone","lat":31.6361,"lon":34.5545,"alertTypeId":1,"areaNameHe":"מערב לכיש","areaNameEn":"Western Lakhish","timeStamp":"2020-02-23 17:34:45"},{"name":"בית שקמה","englishName":"Beit Shikma","lat":31.6377,"lon":34.6101,"alertTypeId":1,"areaNameHe":"מערב לכיש","areaNameEn":"Western Lakhish","timeStamp":"2020-02-23 17:34:45"},{"name":"גיאה","englishName":"Ge'a","lat":31.6285,"lon":34.6027,"alertTypeId":1,"areaNameHe":"מערב לכיש","areaNameEn":"Western Lakhish","timeStamp":"2020-02-23 17:34:45"},{"name":"הודיה","englishName":"Hodaya","lat":31.6764,"lon":34.6393,"alertTypeId":1,"areaNameHe":"מערב לכיש","areaNameEn":"Western Lakhish","timeStamp":"2020-02-23 17:34:45"},{"name":"מבקיעים","englishName":"Mavki'im","lat":31.6225,"lon":34.5774,"alertTypeId":1,"areaNameHe":"מערב לכיש","areaNameEn":"Western Lakhish","timeStamp":"2020-02-23 17:34:45"},{"name":"משען","englishName":"Mishan","lat":31.6569,"lon":34.6216,"alertTypeId":1,"areaNameHe":"מערב לכיש","areaNameEn":"Western Lakhish","timeStamp":"2020-02-23 17:34:45"},{"name":"אזור תעשייה צפוני אשקלון","englishName":"Ashkelon Northern Industrial Zone","lat":31.6647,"lon":34.5981,"alertTypeId":1,"areaNameHe":"מערב לכיש","areaNameEn":"Western Lakhish","timeStamp":"2020-02-23 17:34:46"},{"name":"זיקים","englishName":"Zikim","lat":31.6072,"lon":34.521,"alertTypeId":1,"areaNameHe":"עוטף עזה","areaNameEn":"Gaza Envelope","timeStamp":"2020-02-23 17:34:56"},{"name":"יד מרדכי","englishName":"Yad Mordechai","lat":31.587,"lon":34.5575,"alertTypeId":1,"areaNameHe":"עוטף עזה","areaNameEn":"Gaza Envelope","timeStamp":"2020-02-23 17:34:56"},{"name":"כרמיה","englishName":"Karmia","lat":31.6027,"lon":34.5404,"alertTypeId":1,"areaNameHe":"עוטף עזה","areaNameEn":"Gaza Envelope","timeStamp":"2020-02-23 17:34:56"},{"name":"נתיב העשרה","englishName":"Netiv HaAssara","lat":31.5724,"lon":34.5393,"alertTypeId":1,"areaNameHe":"עוטף עזה","areaNameEn":"Gaza Envelope","timeStamp":"2020-02-23 17:34:56"},{"name":"כיסופים","englishName":"Kissufim","lat":31.3745,"lon":34.399,"alertTypeId":1,"areaNameHe":"עוטף עזה","areaNameEn":"Gaza Envelope","timeStamp":"2020-02-23 17:39:38"},{"name":"כרם שלום","englishName":"Kerem Shalom","lat":31.2283,"lon":34.2846,"alertTypeId":1,"areaNameHe":"עוטף עזה","areaNameEn":"Gaza Envelope","timeStamp":"2020-02-23 17:41:57"},{"name":"אזור תעשייה הדרומי אשקלון","englishName":"Ashkelon Southern Industrial Zone","lat":31.6361,"lon":34.5545,"alertTypeId":1,"areaNameHe":"מערב לכיש","areaNameEn":"Western Lakhish","timeStamp":"2020-02-23 17:43:56"},{"name":"סופה","englishName":"Sufa","lat":31.2383,"lon":34.342,"alertTypeId":1,"areaNameHe":"עוטף עזה","areaNameEn":"Gaza Envelope","timeStamp":"2020-02-23 17:43:56"},{"name":"נתיב העשרה","englishName":"Netiv HaAssara","lat":31.5724,"lon":34.5393,"alertTypeId":1,"areaNameHe":"עוטף עזה","areaNameEn":"Gaza Envelope","timeStamp":"2020-02-23 17:44:02"},{"name":"זיקים","englishName":"Zikim","lat":31.6072,"lon":34.521,"alertTypeId":1,"areaNameHe":"עוטף עזה","areaNameEn":"Gaza Envelope","timeStamp":"2020-02-23 17:44:02"},{"name":"כרמיה","englishName":"Karmia","lat":31.6027,"lon":34.5404,"alertTypeId":1,"areaNameHe":"עוטף עזה","areaNameEn":"Gaza Envelope","timeStamp":"2020-02-23 17:44:02"},{"name":"מבקיעים","englishName":"Mavki'im","lat":31.6225,"lon":34.5774,"alertTypeId":1,"areaNameHe":"מערב לכיש","areaNameEn":"Western Lakhish","timeStamp":"2020-02-23 17:44:02"},{"name":"גבים, מכללת ספיר","englishName":"Gavim, Sapir College","lat":31.5071,"lon":34.5974,"alertTypeId":1,"areaNameHe":"עוטף עזה","areaNameEn":"Gaza Envelope","timeStamp":"2020-02-23 17:44:02"},{"name":"ניר עם","englishName":"Nir Am","lat":31.5184,"lon":34.5805,"alertTypeId":1,"areaNameHe":"עוטף עזה","areaNameEn":"Gaza Envelope","timeStamp":"2020-02-23 17:44:02"},{"name":"שדרות, איבים","englishName":"Sderot, Ibim","lat":31.5313,"lon":34.5984,"alertTypeId":1,"areaNameHe":"עוטף עזה","areaNameEn":"Gaza Envelope","timeStamp":"2020-02-23 17:44:02"},{"name":"מפלסים","englishName":"Mefalsim","lat":31.5022,"lon":34.5617,"alertTypeId":1,"areaNameHe":"עוטף עזה","areaNameEn":"Gaza Envelope","timeStamp":"2020-02-23 17:44:02"},{"name":"מטווח ניר עם","englishName":"Nir Am Shooting Range","lat":31.5128,"lon":34.5543,"alertTypeId":1,"areaNameHe":"עוטף עזה","areaNameEn":"Gaza Envelope","timeStamp":"2020-02-23 17:44:02"},{"name":"ניר יצחק","englishName":"Nir Itzhak","lat":31.236,"lon":34.3567,"alertTypeId":1,"areaNameHe":"עוטף עזה","areaNameEn":"Gaza Envelope","timeStamp":"2020-02-23 17:44:03"},{"name":"ארז","englishName":"Erez","lat":31.5597,"lon":34.565,"alertTypeId":1,"areaNameHe":"עוטף עזה","areaNameEn":"Gaza Envelope","timeStamp":"2020-02-23 17:44:14"},{"name":"בת הדר","englishName":"Bat Hadar","lat":31.6481,"lon":34.5971,"alertTypeId":1,"areaNameHe":"מערב לכיש","areaNameEn":"Western Lakhish","timeStamp":"2020-02-23 17:44:14"},{"name":"ניר עם","englishName":"Nir Am","lat":31.5184,"lon":34.5805,"alertTypeId":1,"areaNameHe":"עוטף עזה","areaNameEn":"Gaza Envelope","timeStamp":"2020-02-23 17:44:20"},{"name":"שדרות, איבים","englishName":"Sderot, Ibim","lat":31.5313,"lon":34.5984,"alertTypeId":1,"areaNameHe":"עוטף עזה","areaNameEn":"Gaza Envelope","timeStamp":"2020-02-23 17:44:20"},{"name":"גבים, מכללת ספיר","englishName":"Gavim, Sapir College","lat":31.5071,"lon":34.5974,"alertTypeId":1,"areaNameHe":"עוטף עזה","areaNameEn":"Gaza Envelope","timeStamp":"2020-02-23 17:44:21"},{"name":"אזור תעשייה הדרומי אשקלון","englishName":"Ashkelon Southern Industrial Zone","lat":31.6361,"lon":34.5545,"alertTypeId":1,"areaNameHe":"מערב לכיש","areaNameEn":"Western Lakhish","timeStamp":"2020-02-23 19:54:40"},{"name":"אזור תעשייה צפוני אשקלון","englishName":"Ashkelon Northern Industrial Zone","lat":31.6647,"lon":34.5981,"alertTypeId":1,"areaNameHe":"מערב לכיש","areaNameEn":"Western Lakhish","timeStamp":"2020-02-23 19:55:01"},{"name":"כיסופים","englishName":"Kissufim","lat":31.3745,"lon":34.399,"alertTypeId":1,"areaNameHe":"עוטף עזה","areaNameEn":"Gaza Envelope","timeStamp":"2020-02-23 20:03:49"},{"name":"שדרות, איבים","englishName":"Sderot, Ibim","lat":31.5313,"lon":34.5984,"alertTypeId":1,"areaNameHe":"עוטף עזה","areaNameEn":"Gaza Envelope","timeStamp":"2020-02-23 21:02:12"},{"name":"גבים, מכללת ספיר","englishName":"Gavim, Sapir College","lat":31.5071,"lon":34.5974,"alertTypeId":1,"areaNameHe":"עוטף עזה","areaNameEn":"Gaza Envelope","timeStamp":"2020-02-23 21:02:22"},{"name":"ניר עם","englishName":"Nir Am","lat":31.5184,"lon":34.5805,"alertTypeId":1,"areaNameHe":"עוטף עזה","areaNameEn":"Gaza Envelope","timeStamp":"2020-02-23 21:02:22"},{"name":"מטווח ניר עם","englishName":"Nir Am Shooting Range","lat":31.5128,"lon":34.5543,"alertTypeId":1,"areaNameHe":"עוטף עזה","areaNameEn":"Gaza Envelope","timeStamp":"2020-02-23 21:02:22"},{"name":"נחל עוז","englishName":"Nachal Oz","lat":31.4727,"lon":34.4977,"alertTypeId":1,"areaNameHe":"עוטף עזה","areaNameEn":"Gaza Envelope","timeStamp":"2020-02-23 21:17:37"},{"name":"סעד","englishName":"Sa'ad","lat":31.4702,"lon":34.5344,"alertTypeId":1,"areaNameHe":"עוטף עזה","areaNameEn":"Gaza Envelope","timeStamp":"2020-02-23 22:11:38"},{"name":"ניר עם","englishName":"Nir Am","lat":31.5184,"lon":34.5805,"alertTypeId":1,"areaNameHe":"עוטף עזה","areaNameEn":"Gaza Envelope","timeStamp":"2020-02-23 22:15:15"},{"name":"מפלסים","englishName":"Mefalsim","lat":31.5022,"lon":34.5617,"alertTypeId":1,"areaNameHe":"עוטף עזה","areaNameEn":"Gaza Envelope","timeStamp":"2020-02-23 22:15:15"},{"name":"מטווח ניר עם","englishName":"Nir Am Shooting Range","lat":31.5128,"lon":34.5543,"alertTypeId":1,"areaNameHe":"עוטף עזה","areaNameEn":"Gaza Envelope","timeStamp":"2020-02-23 22:15:15"},{"name":"גבים, מכללת ספיר","englishName":"Gavim, Sapir College","lat":31.5071,"lon":34.5974,"alertTypeId":1,"areaNameHe":"עוטף עזה","areaNameEn":"Gaza Envelope","timeStamp":"2020-02-23 22:15:15"},{"name":"שדרות, איבים","englishName":"Sderot, Ibim","lat":31.5313,"lon":34.5984,"alertTypeId":1,"areaNameHe":"עוטף עזה","areaNameEn":"Gaza Envelope","timeStamp":"2020-02-23 22:15:15"},{"name":"גבים, מכללת ספיר","englishName":"Gavim, Sapir College","lat":31.5071,"lon":34.5974,"alertTypeId":1,"areaNameHe":"עוטף עזה","areaNameEn":"Gaza Envelope","timeStamp":"2020-02-23 22:15:30"},{"name":"שדרות, איבים","englishName":"Sderot, Ibim","lat":31.5313,"lon":34.5984,"alertTypeId":1,"areaNameHe":"עוטף עזה","areaNameEn":"Gaza Envelope","timeStamp":"2020-02-23 22:15:30"},{"name":"גבים, מכללת ספיר","englishName":"Gavim, Sapir College","lat":31.5071,"lon":34.5974,"alertTypeId":1,"areaNameHe":"עוטף עזה","areaNameEn":"Gaza Envelope","timeStamp":"2020-02-23 22:41:43"},{"name":"ניר עם","englishName":"Nir Am","lat":31.5184,"lon":34.5805,"alertTypeId":1,"areaNameHe":"עוטף עזה","areaNameEn":"Gaza Envelope","timeStamp":"2020-02-23 22:41:43"},{"name":"מפלסים","englishName":"Mefalsim","lat":31.5022,"lon":34.5617,"alertTypeId":1,"areaNameHe":"עוטף עזה","areaNameEn":"Gaza Envelope","timeStamp":"2020-02-23 22:41:43"},{"name":"מטווח ניר עם","englishName":"Nir Am Shooting Range","lat":31.5128,"lon":34.5543,"alertTypeId":1,"areaNameHe":"עוטף עזה","areaNameEn":"Gaza Envelope","timeStamp":"2020-02-23 22:41:43"},{"name":"שדרות, איבים","englishName":"Sderot, Ibim","lat":31.5313,"lon":34.5984,"alertTypeId":1,"areaNameHe":"עוטף עזה","areaNameEn":"Gaza Envelope","timeStamp":"2020-02-23 22:41:43"},{"name":"שדרות, איבים","englishName":"Sderot, Ibim","lat":31.5313,"lon":34.5984,"alertTypeId":1,"areaNameHe":"עוטף עזה","areaNameEn":"Gaza Envelope","timeStamp":"2020-02-23 22:41:59"},{"name":"גבים, מכללת ספיר","englishName":"Gavim, Sapir College","lat":31.5071,"lon":34.5974,"alertTypeId":1,"areaNameHe":"עוטף עזה","areaNameEn":"Gaza Envelope","timeStamp":"2020-02-23 22:42:09"},{"name":"ניר עם","englishName":"Nir Am","lat":31.5184,"lon":34.5805,"alertTypeId":1,"areaNameHe":"עוטף עזה","areaNameEn":"Gaza Envelope","timeStamp":"2020-02-23 22:42:09"}]},{"date":"2020-02-24","alerts":[{"name":"ניר עם","englishName":"Nir Am","lat":31.5184,"lon":34.5805,"alertTypeId":1,"areaNameHe":"עוטף עזה","areaNameEn":"Gaza Envelope","timeStamp":"2020-02-24 12:02:59"},{"name":"שדרות, איבים","englishName":"Sderot, Ibim","lat":31.5313,"lon":34.5984,"alertTypeId":1,"areaNameHe":"עוטף עזה","areaNameEn":"Gaza Envelope","timeStamp":"2020-02-24 12:02:59"},{"name":"גבים, מכללת ספיר","englishName":"Gavim, Sapir College","lat":31.5071,"lon":34.5974,"alertTypeId":1,"areaNameHe":"עוטף עזה","areaNameEn":"Gaza Envelope","timeStamp":"2020-02-24 12:03:04"},{"name":"מפלסים","englishName":"Mefalsim","lat":31.5022,"lon":34.5617,"alertTypeId":1,"areaNameHe":"עוטף עזה","areaNameEn":"Gaza Envelope","timeStamp":"2020-02-24 12:03:10"},{"name":"מטווח ניר עם","englishName":"Nir Am Shooting Range","lat":31.5128,"lon":34.5543,"alertTypeId":1,"areaNameHe":"עוטף עזה","areaNameEn":"Gaza Envelope","timeStamp":"2020-02-24 12:03:10"},{"name":"שדרות, איבים","englishName":"Sderot, Ibim","lat":31.5313,"lon":34.5984,"alertTypeId":1,"areaNameHe":"עוטף עזה","areaNameEn":"Gaza Envelope","timeStamp":"2020-02-24 12:03:16"},{"name":"ניר עם","englishName":"Nir Am","lat":31.5184,"lon":34.5805,"alertTypeId":1,"areaNameHe":"עוטף עזה","areaNameEn":"Gaza Envelope","timeStamp":"2020-02-24 12:32:58"},{"name":"שדרות, איבים","englishName":"Sderot, Ibim","lat":31.5313,"lon":34.5984,"alertTypeId":1,"areaNameHe":"עוטף עזה","areaNameEn":"Gaza Envelope","timeStamp":"2020-02-24 12:32:58"},{"name":"גבים, מכללת ספיר","englishName":"Gavim, Sapir College","lat":31.5071,"lon":34.5974,"alertTypeId":1,"areaNameHe":"עוטף עזה","areaNameEn":"Gaza Envelope","timeStamp":"2020-02-24 12:33:13"},{"name":"נתיב העשרה","englishName":"Netiv HaAssara","lat":31.5724,"lon":34.5393,"alertTypeId":1,"areaNameHe":"עוטף עזה","areaNameEn":"Gaza Envelope","timeStamp":"2020-02-24 12:43:57"},{"name":"אזור תעשייה הדרומי אשקלון","englishName":"Ashkelon Southern Industrial Zone","lat":31.6361,"lon":34.5545,"alertTypeId":1,"areaNameHe":"מערב לכיש","areaNameEn":"Western Lakhish","timeStamp":"2020-02-24 15:08:51"},{"name":"חולית","englishName":"Holit","lat":31.2306,"lon":34.3273,"alertTypeId":1,"areaNameHe":"עוטף עזה","areaNameEn":"Gaza Envelope","timeStamp":"2020-02-24 15:57:22"},{"name":"ניר יצחק","englishName":"Nir Itzhak","lat":31.236,"lon":34.3567,"alertTypeId":1,"areaNameHe":"עוטף עזה","areaNameEn":"Gaza Envelope","timeStamp":"2020-02-24 15:57:22"},{"name":"סופה","englishName":"Sufa","lat":31.2383,"lon":34.342,"alertTypeId":1,"areaNameHe":"עוטף עזה","areaNameEn":"Gaza Envelope","timeStamp":"2020-02-24 15:57:22"},{"name":"פרי גן","englishName":"Pri Gan","lat":31.222,"lon":34.3559,"alertTypeId":1,"areaNameHe":"עוטף עזה","areaNameEn":"Gaza Envelope","timeStamp":"2020-02-24 15:57:22"},{"name":"חולית","englishName":"Holit","lat":31.2306,"lon":34.3273,"alertTypeId":1,"areaNameHe":"עוטף עזה","areaNameEn":"Gaza Envelope","timeStamp":"2020-02-24 16:02:15"},{"name":"סופה","englishName":"Sufa","lat":31.2383,"lon":34.342,"alertTypeId":1,"areaNameHe":"עוטף עזה","areaNameEn":"Gaza Envelope","timeStamp":"2020-02-24 16:02:20"},{"name":"סופה","englishName":"Sufa","lat":31.2383,"lon":34.342,"alertTypeId":1,"areaNameHe":"עוטף עזה","areaNameEn":"Gaza Envelope","timeStamp":"2020-02-24 16:02:36"},{"name":"פרי גן","englishName":"Pri Gan","lat":31.222,"lon":34.3559,"alertTypeId":1,"areaNameHe":"עוטף עזה","areaNameEn":"Gaza Envelope","timeStamp":"2020-02-24 16:02:36"},{"name":"בית הגדי","englishName":"Beit HaGdi","lat":31.4228,"lon":34.6079,"alertTypeId":1,"areaNameHe":"מערב הנגב","areaNameEn":"Western Negev","timeStamp":"2020-02-24 16:08:14"},{"name":"נתיבות","englishName":"Netivot","lat":31.4232,"lon":34.5953,"alertTypeId":1,"areaNameHe":"מערב הנגב","areaNameEn":"Western Negev","timeStamp":"2020-02-24 16:08:14"},{"name":"ברוש","englishName":"Brosh","lat":31.371091,"lon":34.634933,"alertTypeId":1,"areaNameHe":"מערב הנגב","areaNameEn":"Western Negev","timeStamp":"2020-02-24 16:08:24"},{"name":"תאשור","englishName":"Ta'ashur","lat":31.3717,"lon":34.6435,"alertTypeId":1,"areaNameHe":"מערב הנגב","areaNameEn":"Western Negev","timeStamp":"2020-02-24 16:08:24"},{"name":"תדהר","englishName":"Tidhar","lat":31.3789,"lon":34.6304,"alertTypeId":1,"areaNameHe":"מערב הנגב","areaNameEn":"Western Negev","timeStamp":"2020-02-24 16:08:24"},{"name":"שיבולים","englishName":"Shibolim","lat":31.3964,"lon":34.6081,"alertTypeId":1,"areaNameHe":"מערב הנגב","areaNameEn":"Western Negev","timeStamp":"2020-02-24 16:08:24"},{"name":"שרשרת","englishName":"Sharsheret","lat":31.4048,"lon":34.6044,"alertTypeId":1,"areaNameHe":"מערב הנגב","areaNameEn":"Western Negev","timeStamp":"2020-02-24 16:08:24"},{"name":"בארי","englishName":"Be'eri","lat":31.4245,"lon":34.4926,"alertTypeId":1,"areaNameHe":"עוטף עזה","areaNameEn":"Gaza Envelope","timeStamp":"2020-02-24 16:08:35"},{"name":"כפר מימון ותושיה","englishName":"Kfar Maimon and Tushia","lat":31.4324,"lon":34.5384,"alertTypeId":1,"areaNameHe":"עוטף עזה","areaNameEn":"Gaza Envelope","timeStamp":"2020-02-24 16:08:35"},{"name":"עלומים","englishName":"Alumim","lat":31.453,"lon":34.5147,"alertTypeId":1,"areaNameHe":"עוטף עזה","areaNameEn":"Gaza Envelope","timeStamp":"2020-02-24 16:08:35"},{"name":"שוקדה","englishName":"Shokeda","lat":31.4221,"lon":34.5244,"alertTypeId":1,"areaNameHe":"עוטף עזה","areaNameEn":"Gaza Envelope","timeStamp":"2020-02-24 16:08:35"},{"name":"אזור תעשייה הדרומי אשקלון","englishName":"Ashkelon Southern Industrial Zone","lat":31.6361,"lon":34.5545,"alertTypeId":1,"areaNameHe":"מערב לכיש","areaNameEn":"Western Lakhish","timeStamp":"2020-02-24 16:20:54"},{"name":"זיקים","englishName":"Zikim","lat":31.6072,"lon":34.521,"alertTypeId":1,"areaNameHe":"עוטף עזה","areaNameEn":"Gaza Envelope","timeStamp":"2020-02-24 16:20:54"},{"name":"כרמיה","englishName":"Karmia","lat":31.6027,"lon":34.5404,"alertTypeId":1,"areaNameHe":"עוטף עזה","areaNameEn":"Gaza Envelope","timeStamp":"2020-02-24 16:20:54"},{"name":"נתיב העשרה","englishName":"Netiv HaAssara","lat":31.5724,"lon":34.5393,"alertTypeId":1,"areaNameHe":"עוטף עזה","areaNameEn":"Gaza Envelope","timeStamp":"2020-02-24 16:20:54"},{"name":"אזור תעשייה צפוני אשקלון","englishName":"Ashkelon Northern Industrial Zone","lat":31.6647,"lon":34.5981,"alertTypeId":1,"areaNameHe":"מערב לכיש","areaNameEn":"Western Lakhish","timeStamp":"2020-02-24 16:21:11"},{"name":"זיקים","englishName":"Zikim","lat":31.6072,"lon":34.521,"alertTypeId":1,"areaNameHe":"עוטף עזה","areaNameEn":"Gaza Envelope","timeStamp":"2020-02-24 16:21:22"},{"name":"כרמיה","englishName":"Karmia","lat":31.6027,"lon":34.5404,"alertTypeId":1,"areaNameHe":"עוטף עזה","areaNameEn":"Gaza Envelope","timeStamp":"2020-02-24 16:21:22"},{"name":"מבקיעים","englishName":"Mavki'im","lat":31.6225,"lon":34.5774,"alertTypeId":1,"areaNameHe":"מערב לכיש","areaNameEn":"Western Lakhish","timeStamp":"2020-02-24 16:21:22"},{"name":"אזור תעשייה הדרומי אשקלון","englishName":"Ashkelon Southern Industrial Zone","lat":31.6361,"lon":34.5545,"alertTypeId":1,"areaNameHe":"מערב לכיש","areaNameEn":"Western Lakhish","timeStamp":"2020-02-24 16:23:09"},{"name":"זיקים","englishName":"Zikim","lat":31.6072,"lon":34.521,"alertTypeId":1,"areaNameHe":"עוטף עזה","areaNameEn":"Gaza Envelope","timeStamp":"2020-02-24 16:23:16"},{"name":"נתיב העשרה","englishName":"Netiv HaAssara","lat":31.5724,"lon":34.5393,"alertTypeId":1,"areaNameHe":"עוטף עזה","areaNameEn":"Gaza Envelope","timeStamp":"2020-02-24 16:23:16"},{"name":"יד מרדכי","englishName":"Yad Mordechai","lat":31.587,"lon":34.5575,"alertTypeId":1,"areaNameHe":"עוטף עזה","areaNameEn":"Gaza Envelope","timeStamp":"2020-02-24 16:23:21"},{"name":"כרמיה","englishName":"Karmia","lat":31.6027,"lon":34.5404,"alertTypeId":1,"areaNameHe":"עוטף עזה","areaNameEn":"Gaza Envelope","timeStamp":"2020-02-24 16:23:21"},{"name":"מבקיעים","englishName":"Mavki'im","lat":31.6225,"lon":34.5774,"alertTypeId":1,"areaNameHe":"מערב לכיש","areaNameEn":"Western Lakhish","timeStamp":"2020-02-24 16:23:21"},{"name":"שדרות, איבים","englishName":"Sderot, Ibim","lat":31.5313,"lon":34.5984,"alertTypeId":1,"areaNameHe":"עוטף עזה","areaNameEn":"Gaza Envelope","timeStamp":"2020-02-24 16:50:58"},{"name":"ארז","englishName":"Erez","lat":31.5597,"lon":34.565,"alertTypeId":1,"areaNameHe":"עוטף עזה","areaNameEn":"Gaza Envelope","timeStamp":"2020-02-24 16:51:25"},{"name":"נירים","englishName":"Nirim","lat":31.3357,"lon":34.3941,"alertTypeId":1,"areaNameHe":"עוטף עזה","areaNameEn":"Gaza Envelope","timeStamp":"2020-02-24 17:02:18"},{"name":"עין השלושה","englishName":"Ein HaShlosha","lat":31.3517,"lon":34.4035,"alertTypeId":1,"areaNameHe":"עוטף עזה","areaNameEn":"Gaza Envelope","timeStamp":"2020-02-24 17:02:18"},{"name":"עין השלושה","englishName":"Ein HaShlosha","lat":31.3517,"lon":34.4035,"alertTypeId":1,"areaNameHe":"עוטף עזה","areaNameEn":"Gaza Envelope","timeStamp":"2020-02-24 17:03:34"},{"name":"נירים","englishName":"Nirim","lat":31.3357,"lon":34.3941,"alertTypeId":1,"areaNameHe":"עוטף עזה","areaNameEn":"Gaza Envelope","timeStamp":"2020-02-24 17:03:34"},{"name":"אזור תעשייה הדרומי אשקלון","englishName":"Ashkelon Southern Industrial Zone","lat":31.6361,"lon":34.5545,"alertTypeId":1,"areaNameHe":"מערב לכיש","areaNameEn":"Western Lakhish","timeStamp":"2020-02-24 17:17:03"},{"name":"זיקים","englishName":"Zikim","lat":31.6072,"lon":34.521,"alertTypeId":1,"areaNameHe":"עוטף עזה","areaNameEn":"Gaza Envelope","timeStamp":"2020-02-24 17:17:19"},{"name":"כרמיה","englishName":"Karmia","lat":31.6027,"lon":34.5404,"alertTypeId":1,"areaNameHe":"עוטף עזה","areaNameEn":"Gaza Envelope","timeStamp":"2020-02-24 17:17:19"},{"name":"נתיב העשרה","englishName":"Netiv HaAssara","lat":31.5724,"lon":34.5393,"alertTypeId":1,"areaNameHe":"עוטף עזה","areaNameEn":"Gaza Envelope","timeStamp":"2020-02-24 17:17:19"},{"name":"יד מרדכי","englishName":"Yad Mordechai","lat":31.587,"lon":34.5575,"alertTypeId":1,"areaNameHe":"עוטף עזה","areaNameEn":"Gaza Envelope","timeStamp":"2020-02-24 17:17:24"},{"name":"מבקיעים","englishName":"Mavki'im","lat":31.6225,"lon":34.5774,"alertTypeId":1,"areaNameHe":"מערב לכיש","areaNameEn":"Western Lakhish","timeStamp":"2020-02-24 17:17:30"},{"name":"אזור תעשייה הדרומי אשקלון","englishName":"Ashkelon Southern Industrial Zone","lat":31.6361,"lon":34.5545,"alertTypeId":1,"areaNameHe":"מערב לכיש","areaNameEn":"Western Lakhish","timeStamp":"2020-02-24 17:17:40"},{"name":"נירים","englishName":"Nirim","lat":31.3357,"lon":34.3941,"alertTypeId":1,"areaNameHe":"עוטף עזה","areaNameEn":"Gaza Envelope","timeStamp":"2020-02-24 17:27:49"},{"name":"עין השלושה","englishName":"Ein HaShlosha","lat":31.3517,"lon":34.4035,"alertTypeId":1,"areaNameHe":"עוטף עזה","areaNameEn":"Gaza Envelope","timeStamp":"2020-02-24 17:27:55"},{"name":"נירים","englishName":"Nirim","lat":31.3357,"lon":34.3941,"alertTypeId":1,"areaNameHe":"עוטף עזה","areaNameEn":"Gaza Envelope","timeStamp":"2020-02-24 17:28:11"},{"name":"נירים","englishName":"Nirim","lat":31.3357,"lon":34.3941,"alertTypeId":1,"areaNameHe":"עוטף עזה","areaNameEn":"Gaza Envelope","timeStamp":"2020-02-24 17:42:30"},{"name":"נירים","englishName":"Nirim","lat":31.3357,"lon":34.3941,"alertTypeId":1,"areaNameHe":"עוטף עזה","areaNameEn":"Gaza Envelope","timeStamp":"2020-02-24 17:42:50"},{"name":"כיסופים","englishName":"Kissufim","lat":31.3745,"lon":34.399,"alertTypeId":1,"areaNameHe":"עוטף עזה","areaNameEn":"Gaza Envelope","timeStamp":"2020-02-24 18:04:31"},{"name":"נתיב העשרה","englishName":"Netiv HaAssara","lat":31.5724,"lon":34.5393,"alertTypeId":1,"areaNameHe":"עוטף עזה","areaNameEn":"Gaza Envelope","timeStamp":"2020-02-24 18:28:35"},{"name":"כיסופים","englishName":"Kissufim","lat":31.3745,"lon":34.399,"alertTypeId":1,"areaNameHe":"עוטף עזה","areaNameEn":"Gaza Envelope","timeStamp":"2020-02-24 20:03:00"},{"name":"בארי","englishName":"Be'eri","lat":31.4245,"lon":34.4926,"alertTypeId":1,"areaNameHe":"עוטף עזה","areaNameEn":"Gaza Envelope","timeStamp":"2020-02-24 20:16:44"},{"name":"עלומים","englishName":"Alumim","lat":31.453,"lon":34.5147,"alertTypeId":1,"areaNameHe":"עוטף עזה","areaNameEn":"Gaza Envelope","timeStamp":"2020-02-24 20:16:44"},{"name":"שוקדה","englishName":"Shokeda","lat":31.4221,"lon":34.5244,"alertTypeId":1,"areaNameHe":"עוטף עזה","areaNameEn":"Gaza Envelope","timeStamp":"2020-02-24 20:16:44"},{"name":"כפר מימון ותושיה","englishName":"Kfar Maimon and Tushia","lat":31.4324,"lon":34.5384,"alertTypeId":1,"areaNameHe":"עוטף עזה","areaNameEn":"Gaza Envelope","timeStamp":"2020-02-24 20:16:44"},{"name":"עין השלושה","englishName":"Ein HaShlosha","lat":31.3517,"lon":34.4035,"alertTypeId":1,"areaNameHe":"עוטף עזה","areaNameEn":"Gaza Envelope","timeStamp":"2020-02-24 21:21:58"},{"name":"עין השלושה","englishName":"Ein HaShlosha","lat":31.3517,"lon":34.4035,"alertTypeId":1,"areaNameHe":"עוטף עזה","areaNameEn":"Gaza Envelope","timeStamp":"2020-02-24 21:54:25"},{"name":"עין השלושה","englishName":"Ein HaShlosha","lat":31.3517,"lon":34.4035,"alertTypeId":1,"areaNameHe":"עוטף עזה","areaNameEn":"Gaza Envelope","timeStamp":"2020-02-24 21:54:46"},{"name":"כיסופים","englishName":"Kissufim","lat":31.3745,"lon":34.399,"alertTypeId":1,"areaNameHe":"עוטף עזה","areaNameEn":"Gaza Envelope","timeStamp":"2020-02-24 21:54:46"},{"name":"נירים","englishName":"Nirim","lat":31.3357,"lon":34.3941,"alertTypeId":1,"areaNameHe":"עוטף עזה","areaNameEn":"Gaza Envelope","timeStamp":"2020-02-24 21:54:46"},{"name":"שדרות, איבים","englishName":"Sderot, Ibim","lat":31.5313,"lon":34.5984,"alertTypeId":1,"areaNameHe":"עוטף עזה","areaNameEn":"Gaza Envelope","timeStamp":"2020-02-24 22:22:23"},{"name":"ניר עם","englishName":"Nir Am","lat":31.5184,"lon":34.5805,"alertTypeId":1,"areaNameHe":"עוטף עזה","areaNameEn":"Gaza Envelope","timeStamp":"2020-02-24 22:22:28"},{"name":"ארז","englishName":"Erez","lat":31.5597,"lon":34.565,"alertTypeId":1,"areaNameHe":"עוטף עזה","areaNameEn":"Gaza Envelope","timeStamp":"2020-02-24 22:22:28"},{"name":"מטווח ניר עם","englishName":"Nir Am Shooting Range","lat":31.5128,"lon":34.5543,"alertTypeId":1,"areaNameHe":"עוטף עזה","areaNameEn":"Gaza Envelope","timeStamp":"2020-02-24 22:22:28"},{"name":"נתיב העשרה","englishName":"Netiv HaAssara","lat":31.5724,"lon":34.5393,"alertTypeId":1,"areaNameHe":"עוטף עזה","areaNameEn":"Gaza Envelope","timeStamp":"2020-02-24 22:22:38"},{"name":"נחל עוז","englishName":"Nachal Oz","lat":31.4727,"lon":34.4977,"alertTypeId":1,"areaNameHe":"עוטף עזה","areaNameEn":"Gaza Envelope","timeStamp":"2020-02-24 23:03:22"}]},{"date":"2020-03-12","alerts":[{"name":"רעים","englishName":"Reim","lat":31.3862,"lon":34.4588,"alertTypeId":1,"areaNameHe":"עוטף עזה","areaNameEn":"Gaza Envelope","timeStamp":"2020-03-12 19:37:41"},{"name":"רעים","englishName":"Reim","lat":31.3862,"lon":34.4588,"alertTypeId":1,"areaNameHe":"עוטף עזה","areaNameEn":"Gaza Envelope","timeStamp":"2020-03-12 19:37:41"}]},{"date":"2020-03-27","alerts":[{"name":"שדרות, איבים","englishName":"Sderot, Ibim","lat":31.5313,"lon":34.5984,"alertTypeId":1,"areaNameHe":"עוטף עזה","areaNameEn":"Gaza Envelope","timeStamp":"2020-03-27 21:08:14"},{"name":"אור הנר","englishName":"Or HaNer","lat":31.5562,"lon":34.6023,"alertTypeId":1,"areaNameHe":"עוטף עזה","areaNameEn":"Gaza Envelope","timeStamp":"2020-03-27 21:08:14"}]},{"date":"2020-05-26","alerts":[{"name":"כפר עזה","englishName":"Kfar Azza","lat":31.4834,"lon":34.5323,"alertTypeId":1,"areaNameHe":"עוטף עזה","areaNameEn":"Gaza Envelope","timeStamp":"2020-05-26 11:42:27"},{"name":"סעד","englishName":"Sa'ad","lat":31.4702,"lon":34.5344,"alertTypeId":1,"areaNameHe":"עוטף עזה","areaNameEn":"Gaza Envelope","timeStamp":"2020-05-26 11:42:27"}]},{"date":"2020-06-26","alerts":[{"name":"גבים, מכללת ספיר","englishName":"Gavim, Sapir College","lat":31.5071,"lon":34.5974,"alertTypeId":1,"areaNameHe":"עוטף עזה","areaNameEn":"Gaza Envelope","timeStamp":"2020-06-26 20:59:07"},{"name":"מטווח ניר עם","englishName":"Nir Am Shooting Range","lat":31.5128,"lon":34.5543,"alertTypeId":1,"areaNameHe":"עוטף עזה","areaNameEn":"Gaza Envelope","timeStamp":"2020-06-26 20:59:07"}]},{"date":"2020-07-05","alerts":[{"name":"כפר מימון ותושיה","englishName":"Kfar Maimon and Tushia","lat":31.4324,"lon":34.5384,"alertTypeId":1,"areaNameHe":"עוטף עזה","areaNameEn":"Gaza Envelope","timeStamp":"2020-07-05 19:10:50"},{"name":"עלומים","englishName":"Alumim","lat":31.453,"lon":34.5147,"alertTypeId":1,"areaNameHe":"עוטף עזה","areaNameEn":"Gaza Envelope","timeStamp":"2020-07-05 19:10:50"},{"name":"מפלסים","englishName":"Mefalsim","lat":31.5022,"lon":34.5617,"alertTypeId":1,"areaNameHe":"עוטף עזה","areaNameEn":"Gaza Envelope","timeStamp":"2020-07-05 20:09:57"},{"name":"ניר עם","englishName":"Nir Am","lat":31.5184,"lon":34.5805,"alertTypeId":1,"areaNameHe":"עוטף עזה","areaNameEn":"Gaza Envelope","timeStamp":"2020-07-05 20:10:08"},{"name":"כפר עזה","englishName":"Kfar Azza","lat":31.4834,"lon":34.5323,"alertTypeId":1,"areaNameHe":"עוטף עזה","areaNameEn":"Gaza Envelope","timeStamp":"2020-07-05 20:10:08"},{"name":"מטווח ניר עם","englishName":"Nir Am Shooting Range","lat":31.5128,"lon":34.5543,"alertTypeId":1,"areaNameHe":"עוטף עזה","areaNameEn":"Gaza Envelope","timeStamp":"2020-07-05 20:10:08"}]},{"date":"2020-08-02","alerts":[{"name":"ניר עם","englishName":"Nir Am","lat":31.5184,"lon":34.5805,"alertTypeId":1,"areaNameHe":"עוטף עזה","areaNameEn":"Gaza Envelope","timeStamp":"2020-08-02 20:59:18"},{"name":"אור הנר","englishName":"Or HaNer","lat":31.5562,"lon":34.6023,"alertTypeId":1,"areaNameHe":"עוטף עזה","areaNameEn":"Gaza Envelope","timeStamp":"2020-08-02 20:59:18"},{"name":"ארז","englishName":"Erez","lat":31.5597,"lon":34.565,"alertTypeId":1,"areaNameHe":"עוטף עזה","areaNameEn":"Gaza Envelope","timeStamp":"2020-08-02 20:59:18"},{"name":"שדרות, איבים","englishName":"Sderot, Ibim","lat":31.5313,"lon":34.5984,"alertTypeId":1,"areaNameHe":"עוטף עזה","areaNameEn":"Gaza Envelope","timeStamp":"2020-08-02 20:59:18"}]},{"date":"2020-08-07","alerts":[{"name":"אבירים","englishName":"Abirim","lat":33.0381,"lon":35.286,"alertTypeId":1,"areaNameHe":"קו העימות","areaNameEn":"Confrontation Line","timeStamp":"2020-08-07 08:35:29"},{"name":"אלקוש","englishName":"Alkosh","lat":33.0343,"lon":35.3263,"alertTypeId":1,"areaNameHe":"קו העימות","areaNameEn":"Confrontation Line","timeStamp":"2020-08-07 08:35:29"},{"name":"בית ספר שדה מירון","englishName":"Sdeh Meron School","lat":33.0115,"lon":35.3922,"alertTypeId":1,"areaNameHe":"קו העימות","areaNameEn":"Confrontation Line","timeStamp":"2020-08-07 08:35:29"},{"name":"חורפיש","englishName":"Hurfeish","lat":33.0167,"lon":35.3471,"alertTypeId":1,"areaNameHe":"קו העימות","areaNameEn":"Confrontation Line","timeStamp":"2020-08-07 08:35:29"},{"name":"נטועה","englishName":"Netua","lat":33.0654,"lon":35.3234,"alertTypeId":1,"areaNameHe":"קו העימות","areaNameEn":"Confrontation Line","timeStamp":"2020-08-07 08:35:29"},{"name":"פסוטה","englishName":"Fassuta","lat":33.0478,"lon":35.3088,"alertTypeId":1,"areaNameHe":"קו העימות","areaNameEn":"Confrontation Line","timeStamp":"2020-08-07 08:35:29"},{"name":"פקיעין","englishName":"Peki'in","lat":32.9762,"lon":35.3358,"alertTypeId":1,"areaNameHe":"קו העימות","areaNameEn":"Confrontation Line","timeStamp":"2020-08-07 08:35:29"},{"name":"צבעון","englishName":"Zivon","lat":33.0264,"lon":35.4167,"alertTypeId":1,"areaNameHe":"קו העימות","areaNameEn":"Confrontation Line","timeStamp":"2020-08-07 08:35:29"},{"name":"צוריאל","englishName":"Tzuriel","lat":33.0065,"lon":35.3148,"alertTypeId":1,"areaNameHe":"קו העימות","areaNameEn":"Confrontation Line","timeStamp":"2020-08-07 08:35:29"},{"name":"דוב''ב","englishName":"Dovev","lat":33.0508,"lon":35.407747,"alertTypeId":1,"areaNameHe":"קו העימות","areaNameEn":"Confrontation Line","timeStamp":"2020-08-07 08:35:54"},{"name":"מתת","englishName":"Matat","lat":33.0417,"lon":35.3567,"alertTypeId":1,"areaNameHe":"קו העימות","areaNameEn":"Confrontation Line","timeStamp":"2020-08-07 08:35:54"},{"name":"סאסא","englishName":"Sassa","lat":33.0287,"lon":35.3946,"alertTypeId":1,"areaNameHe":"קו העימות","areaNameEn":"Confrontation Line","timeStamp":"2020-08-07 08:35:54"}]},{"date":"2020-08-16","alerts":[{"name":"שדרות, איבים","englishName":"Sderot, Ibim","lat":31.5313,"lon":34.5984,"alertTypeId":1,"areaNameHe":"עוטף עזה","areaNameEn":"Gaza Envelope","timeStamp":"2020-08-16 00:58:52"}]},{"date":"2020-08-18","alerts":[{"name":"אזור תעשייה צפוני אשקלון","englishName":"Ashkelon Northern Industrial Zone","lat":31.6647,"lon":34.5981,"alertTypeId":1,"areaNameHe":"מערב לכיש","areaNameEn":"Western Lakhish","timeStamp":"2020-08-18 20:52:46"},{"name":"אזור תעשייה הדרומי אשקלון","englishName":"Ashkelon Southern Industrial Zone","lat":31.6361,"lon":34.5545,"alertTypeId":1,"areaNameHe":"מערב לכיש","areaNameEn":"Western Lakhish","timeStamp":"2020-08-18 20:52:46"},{"name":"זיקים","englishName":"Zikim","lat":31.6072,"lon":34.521,"alertTypeId":1,"areaNameHe":"עוטף עזה","areaNameEn":"Gaza Envelope","timeStamp":"2020-08-18 20:52:46"}]},{"date":"2020-08-20","alerts":[{"name":"כיסופים","englishName":"Kissufim","lat":31.3745,"lon":34.399,"alertTypeId":1,"areaNameHe":"עוטף עזה","areaNameEn":"Gaza Envelope","timeStamp":"2020-08-20 23:29:41"}]},{"date":"2020-08-21","alerts":[{"name":"ניר עם","englishName":"Nir Am","lat":31.5184,"lon":34.5805,"alertTypeId":1,"areaNameHe":"עוטף עזה","areaNameEn":"Gaza Envelope","timeStamp":"2020-08-21 02:31:37"},{"name":"שדרות, איבים","englishName":"Sderot, Ibim","lat":31.5313,"lon":34.5984,"alertTypeId":1,"areaNameHe":"עוטף עזה","areaNameEn":"Gaza Envelope","timeStamp":"2020-08-21 21:27:52"},{"name":"ניר עם","englishName":"Nir Am","lat":31.5184,"lon":34.5805,"alertTypeId":1,"areaNameHe":"עוטף עזה","areaNameEn":"Gaza Envelope","timeStamp":"2020-08-21 21:28:08"},{"name":"ארז","englishName":"Erez","lat":31.5597,"lon":34.565,"alertTypeId":1,"areaNameHe":"עוטף עזה","areaNameEn":"Gaza Envelope","timeStamp":"2020-08-21 21:28:08"},{"name":"מטווח ניר עם","englishName":"Nir Am Shooting Range","lat":31.5128,"lon":34.5543,"alertTypeId":1,"areaNameHe":"עוטף עזה","areaNameEn":"Gaza Envelope","timeStamp":"2020-08-21 21:28:08"}]},{"date":"2020-08-22","alerts":[{"name":"שדרות, איבים","englishName":"Sderot, Ibim","lat":31.5313,"lon":34.5984,"alertTypeId":1,"areaNameHe":"עוטף עזה","areaNameEn":"Gaza Envelope","timeStamp":"2020-08-22 19:13:38"}]},{"date":"2020-08-28","alerts":[{"name":"נחל עוז","englishName":"Nachal Oz","lat":31.4727,"lon":34.4977,"alertTypeId":1,"areaNameHe":"עוטף עזה","areaNameEn":"Gaza Envelope","timeStamp":"2020-08-28 05:07:03"},{"name":"עלומים","englishName":"Alumim","lat":31.453,"lon":34.5147,"alertTypeId":1,"areaNameHe":"עוטף עזה","areaNameEn":"Gaza Envelope","timeStamp":"2020-08-28 05:07:13"}]},{"date":"2020-09-11","alerts":[{"name":"נתיב העשרה","englishName":"Netiv HaAssara","lat":31.5724,"lon":34.5393,"alertTypeId":1,"areaNameHe":"עוטף עזה","areaNameEn":"Gaza Envelope","timeStamp":"2020-09-11 13:58:45"}]},{"date":"2020-09-15","alerts":[{"name":"אזור תעשייה הדרומי אשקלון","englishName":"Ashkelon Southern Industrial Zone","lat":31.6361,"lon":34.5545,"alertTypeId":1,"areaNameHe":"מערב לכיש","areaNameEn":"Western Lakhish","timeStamp":"2020-09-15 20:13:49"},{"name":"אשדוד - א,ב,ד,ה","englishName":"Ashdod - Alef,Bet,Dalet,Heh","lat":31.8047,"lon":34.6469,"alertTypeId":1,"areaNameHe":"לכיש","areaNameEn":"Lakhish","timeStamp":"2020-09-15 20:14:04"},{"name":"אשדוד - ג,ו,ז","englishName":"Ashdod - Gimmel,Vav,Zain","lat":31.7966,"lon":34.6579,"alertTypeId":1,"areaNameHe":"לכיש","areaNameEn":"Lakhish","timeStamp":"2020-09-15 20:14:04"},{"name":"אשדוד - ח,ט,י,יג,יד,טז","englishName":"Ashdod - Het,Tet,Yod,Yod Gimmel,Yod Dalet,Tet Zain","lat":31.7778,"lon":34.6462,"alertTypeId":1,"areaNameHe":"לכיש","areaNameEn":"Lakhish","timeStamp":"2020-09-15 20:14:04"}]},{"date":"2020-09-16","alerts":[{"name":"גבים, מכללת ספיר","englishName":"Gavim, Sapir College","lat":31.5071,"lon":34.5974,"alertTypeId":1,"areaNameHe":"עוטף עזה","areaNameEn":"Gaza Envelope","timeStamp":"2020-09-16 04:31:02"},{"name":"ניר עם","englishName":"Nir Am","lat":31.5184,"lon":34.5805,"alertTypeId":1,"areaNameHe":"עוטף עזה","areaNameEn":"Gaza Envelope","timeStamp":"2020-09-16 04:31:02"},{"name":"שדרות, איבים","englishName":"Sderot, Ibim","lat":31.5313,"lon":34.5984,"alertTypeId":1,"areaNameHe":"עוטף עזה","areaNameEn":"Gaza Envelope","timeStamp":"2020-09-16 04:31:02"},{"name":"גבים, מכללת ספיר","englishName":"Gavim, Sapir College","lat":31.5071,"lon":34.5974,"alertTypeId":1,"areaNameHe":"עוטף עזה","areaNameEn":"Gaza Envelope","timeStamp":"2020-09-16 04:38:40"},{"name":"ניר עם","englishName":"Nir Am","lat":31.5184,"lon":34.5805,"alertTypeId":1,"areaNameHe":"עוטף עזה","areaNameEn":"Gaza Envelope","timeStamp":"2020-09-16 04:38:40"},{"name":"מפלסים","englishName":"Mefalsim","lat":31.5022,"lon":34.5617,"alertTypeId":1,"areaNameHe":"עוטף עזה","areaNameEn":"Gaza Envelope","timeStamp":"2020-09-16 04:38:40"},{"name":"מטווח ניר עם","englishName":"Nir Am Shooting Range","lat":31.5128,"lon":34.5543,"alertTypeId":1,"areaNameHe":"עוטף עזה","areaNameEn":"Gaza Envelope","timeStamp":"2020-09-16 04:38:40"},{"name":"שדרות, איבים","englishName":"Sderot, Ibim","lat":31.5313,"lon":34.5984,"alertTypeId":1,"areaNameHe":"עוטף עזה","areaNameEn":"Gaza Envelope","timeStamp":"2020-09-16 04:38:40"},{"name":"ניר משה","englishName":"Nir Moshe","lat":31.4775,"lon":34.6301,"alertTypeId":1,"areaNameHe":"מערב הנגב","areaNameEn":"Western Negev","timeStamp":"2020-09-16 04:53:37"},{"name":"גבים, מכללת ספיר","englishName":"Gavim, Sapir College","lat":31.5071,"lon":34.5974,"alertTypeId":1,"areaNameHe":"עוטף עזה","areaNameEn":"Gaza Envelope","timeStamp":"2020-09-16 04:53:42"},{"name":"ניר עם","englishName":"Nir Am","lat":31.5184,"lon":34.5805,"alertTypeId":1,"areaNameHe":"עוטף עזה","areaNameEn":"Gaza Envelope","timeStamp":"2020-09-16 04:53:42"},{"name":"שדרות, איבים","englishName":"Sderot, Ibim","lat":31.5313,"lon":34.5984,"alertTypeId":1,"areaNameHe":"עוטף עזה","areaNameEn":"Gaza Envelope","timeStamp":"2020-09-16 04:53:42"},{"name":"מפלסים","englishName":"Mefalsim","lat":31.5022,"lon":34.5617,"alertTypeId":1,"areaNameHe":"עוטף עזה","areaNameEn":"Gaza Envelope","timeStamp":"2020-09-16 04:53:42"},{"name":"מטווח ניר עם","englishName":"Nir Am Shooting Range","lat":31.5128,"lon":34.5543,"alertTypeId":1,"areaNameHe":"עוטף עזה","areaNameEn":"Gaza Envelope","timeStamp":"2020-09-16 04:53:42"},{"name":"כיסופים","englishName":"Kissufim","lat":31.3745,"lon":34.399,"alertTypeId":1,"areaNameHe":"עוטף עזה","areaNameEn":"Gaza Envelope","timeStamp":"2020-09-16 05:01:35"},{"name":"נירים","englishName":"Nirim","lat":31.3357,"lon":34.3941,"alertTypeId":1,"areaNameHe":"עוטף עזה","areaNameEn":"Gaza Envelope","timeStamp":"2020-09-16 05:01:35"},{"name":"עין השלושה","englishName":"Ein HaShlosha","lat":31.3517,"lon":34.4035,"alertTypeId":1,"areaNameHe":"עוטף עזה","areaNameEn":"Gaza Envelope","timeStamp":"2020-09-16 05:01:35"},{"name":"כיסופים","englishName":"Kissufim","lat":31.3745,"lon":34.399,"alertTypeId":1,"areaNameHe":"עוטף עזה","areaNameEn":"Gaza Envelope","timeStamp":"2020-09-16 05:08:57"},{"name":"רעים","englishName":"Reim","lat":31.3862,"lon":34.4588,"alertTypeId":1,"areaNameHe":"עוטף עזה","areaNameEn":"Gaza Envelope","timeStamp":"2020-09-16 05:09:02"}]},{"date":"2020-10-05","alerts":[{"name":"כרם שלום","englishName":"Kerem Shalom","lat":31.2283,"lon":34.2846,"alertTypeId":1,"areaNameHe":"עוטף עזה","areaNameEn":"Gaza Envelope","timeStamp":"2020-10-05 20:19:48"}]},{"date":"2020-10-16","alerts":[{"name":"נתיב העשרה","englishName":"Netiv HaAssara","lat":31.5724,"lon":34.5393,"alertTypeId":1,"areaNameHe":"עוטף עזה","areaNameEn":"Gaza Envelope","timeStamp":"2020-10-16 20:59:55"}]},{"date":"2020-10-20","alerts":[{"name":"נחל עוז","englishName":"Nachal Oz","lat":31.4727,"lon":34.4977,"alertTypeId":1,"areaNameHe":"עוטף עזה","areaNameEn":"Gaza Envelope","timeStamp":"2020-10-20 20:56:05"},{"name":"כפר עזה","englishName":"Kfar Azza","lat":31.4834,"lon":34.5323,"alertTypeId":1,"areaNameHe":"עוטף עזה","areaNameEn":"Gaza Envelope","timeStamp":"2020-10-20 20:56:05"},{"name":"סעד","englishName":"Sa'ad","lat":31.4702,"lon":34.5344,"alertTypeId":1,"areaNameHe":"עוטף עזה","areaNameEn":"Gaza Envelope","timeStamp":"2020-10-20 20:56:05"}]},{"date":"2020-10-22","alerts":[{"name":"אזור תעשייה צפוני אשקלון","englishName":"Ashkelon Northern Industrial Zone","lat":31.6647,"lon":34.5981,"alertTypeId":1,"areaNameHe":"מערב לכיש","areaNameEn":"Western Lakhish","timeStamp":"2020-10-22 22:10:50"},{"name":"באר גנים","englishName":"Be'er Ganim","lat":31.7004,"lon":34.6109,"alertTypeId":1,"areaNameHe":"מערב לכיש","areaNameEn":"Western Lakhish","timeStamp":"2020-10-22 22:10:50"},{"name":"אזור תעשייה הדרומי אשקלון","englishName":"Ashkelon Southern Industrial Zone","lat":31.6361,"lon":34.5545,"alertTypeId":1,"areaNameHe":"מערב לכיש","areaNameEn":"Western Lakhish","timeStamp":"2020-10-22 22:10:50"},{"name":"מבקיעים","englishName":"Mavki'im","lat":31.6225,"lon":34.5774,"alertTypeId":1,"areaNameHe":"מערב לכיש","areaNameEn":"Western Lakhish","timeStamp":"2020-10-22 22:10:50"},{"name":"יד מרדכי","englishName":"Yad Mordechai","lat":31.587,"lon":34.5575,"alertTypeId":1,"areaNameHe":"עוטף עזה","areaNameEn":"Gaza Envelope","timeStamp":"2020-10-22 22:11:00"},{"name":"כרמיה","englishName":"Karmia","lat":31.6027,"lon":34.5404,"alertTypeId":1,"areaNameHe":"עוטף עזה","areaNameEn":"Gaza Envelope","timeStamp":"2020-10-22 22:11:00"},{"name":"נתיב העשרה","englishName":"Netiv HaAssara","lat":31.5724,"lon":34.5393,"alertTypeId":1,"areaNameHe":"עוטף עזה","areaNameEn":"Gaza Envelope","timeStamp":"2020-10-22 22:11:00"}]},{"date":"2020-11-15","alerts":[{"name":"פלמחים","englishName":"Palmachim","lat":31.9327,"lon":34.7069,"alertTypeId":1,"areaNameHe":"לכיש","areaNameEn":"Lakhish","timeStamp":"2020-11-15 02:07:19"}]},{"date":"2020-11-21","alerts":[{"name":"אזור תעשייה הדרומי אשקלון","englishName":"Ashkelon Southern Industrial Zone","lat":31.6361,"lon":34.5545,"alertTypeId":1,"areaNameHe":"מערב לכיש","areaNameEn":"Western Lakhish","timeStamp":"2020-11-21 21:36:24"}]},{"date":"2020-12-25","alerts":[{"name":"אזור תעשייה הדרומי אשקלון","englishName":"Ashkelon Southern Industrial Zone","lat":31.6361,"lon":34.5545,"alertTypeId":1,"areaNameHe":"מערב לכיש","areaNameEn":"Western Lakhish","timeStamp":"2020-12-25 20:00:45"},{"name":"זיקים","englishName":"Zikim","lat":31.6072,"lon":34.521,"alertTypeId":1,"areaNameHe":"עוטף עזה","areaNameEn":"Gaza Envelope","timeStamp":"2020-12-25 20:00:45"},{"name":"כרמיה","englishName":"Karmia","lat":31.6027,"lon":34.5404,"alertTypeId":1,"areaNameHe":"עוטף עזה","areaNameEn":"Gaza Envelope","timeStamp":"2020-12-25 20:01:00"},{"name":"נתיב העשרה","englishName":"Netiv HaAssara","lat":31.5724,"lon":34.5393,"alertTypeId":1,"areaNameHe":"עוטף עזה","areaNameEn":"Gaza Envelope","timeStamp":"2020-12-25 20:01:00"},{"name":"מבקיעים","englishName":"Mavki'im","lat":31.6225,"lon":34.5774,"alertTypeId":1,"areaNameHe":"מערב לכיש","areaNameEn":"Western Lakhish","timeStamp":"2020-12-25 20:01:06"}]},{"date":"2020-12-29","alerts":[{"name":"כרם שלום","englishName":"Kerem Shalom","lat":31.2283,"lon":34.2846,"alertTypeId":1,"areaNameHe":"עוטף עזה","areaNameEn":"Gaza Envelope","timeStamp":"2020-12-29 00:05:54"}]},{"date":"2021-03-11","alerts":[{"name":"אזור תעשייה הדרומי אשקלון","englishName":"Ashkelon Southern Industrial Zone","lat":31.6361,"lon":34.5545,"alertTypeId":1,"areaNameHe":"מערב לכיש","areaNameEn":"Western Lakhish","timeStamp":"2021-03-11 21:08:44"},{"name":"זיקים","englishName":"Zikim","lat":31.6072,"lon":34.521,"alertTypeId":1,"areaNameHe":"עוטף עזה","areaNameEn":"Gaza Envelope","timeStamp":"2021-03-11 21:08:44"}]},{"date":"2021-04-15","alerts":[{"name":"ניר עם","englishName":"Nir Am","lat":31.5184,"lon":34.5805,"alertTypeId":1,"areaNameHe":"עוטף עזה","areaNameEn":"Gaza Envelope","timeStamp":"2021-04-15 21:01:38"},{"name":"שדרות, איבים","englishName":"Sderot, Ibim","lat":31.5313,"lon":34.5984,"alertTypeId":1,"areaNameHe":"עוטף עזה","areaNameEn":"Gaza Envelope","timeStamp":"2021-04-15 21:01:38"}]},{"date":"2021-04-16","alerts":[{"name":"חולית","englishName":"Holit","lat":31.2306,"lon":34.3273,"alertTypeId":1,"areaNameHe":"עוטף עזה","areaNameEn":"Gaza Envelope","timeStamp":"2021-04-16 21:43:36"}]},{"date":"2021-04-22","alerts":[]},{"date":"2021-04-23","alerts":[{"name":"כיסופים","englishName":"Kissufim","lat":31.3745,"lon":34.399,"alertTypeId":1,"areaNameHe":"עוטף עזה","areaNameEn":"Gaza Envelope","timeStamp":"2021-04-23 22:59:09"}]},{"date":"2021-04-24","alerts":[{"name":"כפר מימון ותושיה","englishName":"Kfar Maimon and Tushia","lat":31.4324,"lon":34.5384,"alertTypeId":1,"areaNameHe":"עוטף עזה","areaNameEn":"Gaza Envelope","timeStamp":"2021-04-24 01:50:04"},{"name":"ניר יצחק","englishName":"Nir Itzhak","lat":31.236,"lon":34.3567,"alertTypeId":1,"areaNameHe":"עוטף עזה","areaNameEn":"Gaza Envelope","timeStamp":"2021-04-24 02:12:14"},{"name":"נתיב העשרה","englishName":"Netiv HaAssara","lat":31.5724,"lon":34.5393,"alertTypeId":1,"areaNameHe":"עוטף עזה","areaNameEn":"Gaza Envelope","timeStamp":"2021-04-24 02:30:33"},{"name":"כפר עזה","englishName":"Kfar Azza","lat":31.4834,"lon":34.5323,"alertTypeId":1,"areaNameHe":"עוטף עזה","areaNameEn":"Gaza Envelope","timeStamp":"2021-04-24 03:10:41"},{"name":"מפלסים","englishName":"Mefalsim","lat":31.5022,"lon":34.5617,"alertTypeId":1,"areaNameHe":"עוטף עזה","areaNameEn":"Gaza Envelope","timeStamp":"2021-04-24 03:10:41"},{"name":"נחל עוז","englishName":"Nachal Oz","lat":31.4727,"lon":34.4977,"alertTypeId":1,"areaNameHe":"עוטף עזה","areaNameEn":"Gaza Envelope","timeStamp":"2021-04-24 03:51:13"},{"name":"כרם שלום","englishName":"Kerem Shalom","lat":31.2283,"lon":34.2846,"alertTypeId":1,"areaNameHe":"עוטף עזה","areaNameEn":"Gaza Envelope","timeStamp":"2021-04-24 04:58:27"},{"name":"נחל עוז","englishName":"Nachal Oz","lat":31.4727,"lon":34.4977,"alertTypeId":1,"areaNameHe":"עוטף עזה","areaNameEn":"Gaza Envelope","timeStamp":"2021-04-24 05:27:58"},{"name":"עלומים","englishName":"Alumim","lat":31.453,"lon":34.5147,"alertTypeId":1,"areaNameHe":"עוטף עזה","areaNameEn":"Gaza Envelope","timeStamp":"2021-04-24 05:27:58"},{"name":"כיסופים","englishName":"Kissufim","lat":31.3745,"lon":34.399,"alertTypeId":1,"areaNameHe":"עוטף עזה","areaNameEn":"Gaza Envelope","timeStamp":"2021-04-24 05:35:46"},{"name":"כיסופים","englishName":"Kissufim","lat":31.3745,"lon":34.399,"alertTypeId":1,"areaNameHe":"עוטף עזה","areaNameEn":"Gaza Envelope","timeStamp":"2021-04-24 05:40:03"},{"name":"כיסופים","englishName":"Kissufim","lat":31.3745,"lon":34.399,"alertTypeId":1,"areaNameHe":"עוטף עזה","areaNameEn":"Gaza Envelope","timeStamp":"2021-04-24 05:41:04"},{"name":"אזור תעשייה הדרומי אשקלון","englishName":"Ashkelon Southern Industrial Zone","lat":31.6361,"lon":34.5545,"alertTypeId":1,"areaNameHe":"מערב לכיש","areaNameEn":"Western Lakhish","timeStamp":"2021-04-24 05:48:46"},{"name":"זיקים","englishName":"Zikim","lat":31.6072,"lon":34.521,"alertTypeId":1,"areaNameHe":"עוטף עזה","areaNameEn":"Gaza Envelope","timeStamp":"2021-04-24 05:48:51"},{"name":"כרמיה","englishName":"Karmia","lat":31.6027,"lon":34.5404,"alertTypeId":1,"areaNameHe":"עוטף עזה","areaNameEn":"Gaza Envelope","timeStamp":"2021-04-24 05:48:51"},{"name":"יד מרדכי","englishName":"Yad Mordechai","lat":31.587,"lon":34.5575,"alertTypeId":1,"areaNameHe":"עוטף עזה","areaNameEn":"Gaza Envelope","timeStamp":"2021-04-24 05:48:58"},{"name":"נתיב העשרה","englishName":"Netiv HaAssara","lat":31.5724,"lon":34.5393,"alertTypeId":1,"areaNameHe":"עוטף עזה","areaNameEn":"Gaza Envelope","timeStamp":"2021-04-24 05:48:58"},{"name":"אזור תעשייה הדרומי אשקלון","englishName":"Ashkelon Southern Industrial Zone","lat":31.6361,"lon":34.5545,"alertTypeId":1,"areaNameHe":"מערב לכיש","areaNameEn":"Western Lakhish","timeStamp":"2021-04-24 05:59:45"},{"name":"זיקים","englishName":"Zikim","lat":31.6072,"lon":34.521,"alertTypeId":1,"areaNameHe":"עוטף עזה","areaNameEn":"Gaza Envelope","timeStamp":"2021-04-24 06:00:00"},{"name":"נתיב העשרה","englishName":"Netiv HaAssara","lat":31.5724,"lon":34.5393,"alertTypeId":1,"areaNameHe":"עוטף עזה","areaNameEn":"Gaza Envelope","timeStamp":"2021-04-24 06:00:00"},{"name":"גבים, מכללת ספיר","englishName":"Gavim, Sapir College","lat":31.5071,"lon":34.5974,"alertTypeId":1,"areaNameHe":"עוטף עזה","areaNameEn":"Gaza Envelope","timeStamp":"2021-04-24 20:58:43"},{"name":"ניר עם","englishName":"Nir Am","lat":31.5184,"lon":34.5805,"alertTypeId":1,"areaNameHe":"עוטף עזה","areaNameEn":"Gaza Envelope","timeStamp":"2021-04-24 20:58:43"},{"name":"שדרות, איבים","englishName":"Sderot, Ibim","lat":31.5313,"lon":34.5984,"alertTypeId":1,"areaNameHe":"עוטף עזה","areaNameEn":"Gaza Envelope","timeStamp":"2021-04-24 20:58:43"},{"name":"מפלסים","englishName":"Mefalsim","lat":31.5022,"lon":34.5617,"alertTypeId":1,"areaNameHe":"עוטף עזה","areaNameEn":"Gaza Envelope","timeStamp":"2021-04-24 20:58:48"},{"name":"מטווח ניר עם","englishName":"Nir Am Shooting Range","lat":31.5128,"lon":34.5543,"alertTypeId":1,"areaNameHe":"עוטף עזה","areaNameEn":"Gaza Envelope","timeStamp":"2021-04-24 20:58:48"},{"name":"נירים","englishName":"Nirim","lat":31.3357,"lon":34.3941,"alertTypeId":1,"areaNameHe":"עוטף עזה","areaNameEn":"Gaza Envelope","timeStamp":"2021-04-24 22:28:46"}]},{"date":"2021-04-26","alerts":[{"name":"ניר עם","englishName":"Nir Am","lat":31.5184,"lon":34.5805,"alertTypeId":1,"areaNameHe":"עוטף עזה","areaNameEn":"Gaza Envelope","timeStamp":"2021-04-26 03:16:59"},{"name":"שדרות, איבים","englishName":"Sderot, Ibim","lat":31.5313,"lon":34.5984,"alertTypeId":1,"areaNameHe":"עוטף עזה","areaNameEn":"Gaza Envelope","timeStamp":"2021-04-26 03:16:59"},{"name":"ארז","englishName":"Erez","lat":31.5597,"lon":34.565,"alertTypeId":1,"areaNameHe":"עוטף עזה","areaNameEn":"Gaza Envelope","timeStamp":"2021-04-26 03:16:59"},{"name":"מטווח ניר עם","englishName":"Nir Am Shooting Range","lat":31.5128,"lon":34.5543,"alertTypeId":1,"areaNameHe":"עוטף עזה","areaNameEn":"Gaza Envelope","timeStamp":"2021-04-26 03:16:59"}]},{"date":"2021-05-09","alerts":[{"name":"אזור תעשייה הדרומי אשקלון","englishName":"Ashkelon Southern Industrial Zone","lat":31.6361,"lon":34.5545,"alertTypeId":1,"areaNameHe":"מערב לכיש","areaNameEn":"Western Lakhish","timeStamp":"2021-05-09 21:11:08"},{"name":"זיקים","englishName":"Zikim","lat":31.6072,"lon":34.521,"alertTypeId":1,"areaNameHe":"עוטף עזה","areaNameEn":"Gaza Envelope","timeStamp":"2021-05-09 21:11:08"},{"name":"יד מרדכי","englishName":"Yad Mordechai","lat":31.587,"lon":34.5575,"alertTypeId":1,"areaNameHe":"עוטף עזה","areaNameEn":"Gaza Envelope","timeStamp":"2021-05-09 21:11:08"},{"name":"כרמיה","englishName":"Karmia","lat":31.6027,"lon":34.5404,"alertTypeId":1,"areaNameHe":"עוטף עזה","areaNameEn":"Gaza Envelope","timeStamp":"2021-05-09 21:11:08"},{"name":"נתיב העשרה","englishName":"Netiv HaAssara","lat":31.5724,"lon":34.5393,"alertTypeId":1,"areaNameHe":"עוטף עזה","areaNameEn":"Gaza Envelope","timeStamp":"2021-05-09 21:11:08"},{"name":"מבקיעים","englishName":"Mavki'im","lat":31.6225,"lon":34.5774,"alertTypeId":1,"areaNameHe":"מערב לכיש","areaNameEn":"Western Lakhish","timeStamp":"2021-05-09 21:11:34"}]},{"date":"2021-05-10","alerts":[{"name":"שדרות, איבים","englishName":"Sderot, Ibim","lat":31.5313,"lon":34.5984,"alertTypeId":1,"areaNameHe":"עוטף עזה","areaNameEn":"Gaza Envelope","timeStamp":"2021-05-10 06:22:22"},{"name":"כפר עזה","englishName":"Kfar Azza","lat":31.4834,"lon":34.5323,"alertTypeId":1,"areaNameHe":"עוטף עזה","areaNameEn":"Gaza Envelope","timeStamp":"2021-05-10 06:22:22"},{"name":"סעד","englishName":"Sa'ad","lat":31.4702,"lon":34.5344,"alertTypeId":1,"areaNameHe":"עוטף עזה","areaNameEn":"Gaza Envelope","timeStamp":"2021-05-10 06:22:22"},{"name":"ניר עם","englishName":"Nir Am","lat":31.5184,"lon":34.5805,"alertTypeId":1,"areaNameHe":"עוטף עזה","areaNameEn":"Gaza Envelope","timeStamp":"2021-05-10 06:22:32"},{"name":"ארז","englishName":"Erez","lat":31.5597,"lon":34.565,"alertTypeId":1,"areaNameHe":"עוטף עזה","areaNameEn":"Gaza Envelope","timeStamp":"2021-05-10 06:22:32"},{"name":"מפלסים","englishName":"Mefalsim","lat":31.5022,"lon":34.5617,"alertTypeId":1,"areaNameHe":"עוטף עזה","areaNameEn":"Gaza Envelope","timeStamp":"2021-05-10 06:22:32"},{"name":"מטווח ניר עם","englishName":"Nir Am Shooting Range","lat":31.5128,"lon":34.5543,"alertTypeId":1,"areaNameHe":"עוטף עזה","areaNameEn":"Gaza Envelope","timeStamp":"2021-05-10 06:22:32"},{"name":"בית נקופה","englishName":"Beit Nekofa","lat":31.8044,"lon":35.1269,"alertTypeId":1,"areaNameHe":"שפלת יהודה","areaNameEn":"Shfelat Yehuda","timeStamp":"2021-05-10 18:02:12"},{"name":"מבשרת ציון","englishName":"Mevasseret Zion","lat":31.8041,"lon":35.1579,"alertTypeId":1,"areaNameHe":"ירושלים","areaNameEn":"Jerusalem","timeStamp":"2021-05-10 18:02:12"},{"name":"מוצא עילית","englishName":"Motza Illit","lat":31.7936,"lon":35.157,"alertTypeId":1,"areaNameHe":"ירושלים","areaNameEn":"Jerusalem","timeStamp":"2021-05-10 18:02:12"},{"name":"צובה","englishName":"Tzuba","lat":31.7844,"lon":35.118,"alertTypeId":1,"areaNameHe":"שפלת יהודה","areaNameEn":"Shfelat Yehuda","timeStamp":"2021-05-10 18:02:12"},{"name":"גבעת יערים","englishName":"Givat Yearim","lat":31.7861,"lon":35.0928,"alertTypeId":1,"areaNameHe":"שפלת יהודה","areaNameEn":"Shfelat Yehuda","timeStamp":"2021-05-10 18:02:12"},{"name":"עין נקובא","englishName":"Ein Naqquba","lat":31.7939,"lon":35.1197,"alertTypeId":1,"areaNameHe":"שפלת יהודה","areaNameEn":"Shfelat Yehuda","timeStamp":"2021-05-10 18:02:12"},{"name":"עין ראפה","englishName":"Ein Rafa","lat":31.7906,"lon":35.1165,"alertTypeId":1,"areaNameHe":"שפלת יהודה","areaNameEn":"Shfelat Yehuda","timeStamp":"2021-05-10 18:02:12"},{"name":"רמת רזיאל","englishName":"Ramat Raziel","lat":31.7736,"lon":35.0744,"alertTypeId":1,"areaNameHe":"שפלת יהודה","areaNameEn":"Shfelat Yehuda","timeStamp":"2021-05-10 18:02:12"},{"name":"הר אדר","englishName":"Har Adar","lat":31.8245,"lon":35.1297,"alertTypeId":1,"areaNameHe":"שפלת יהודה","areaNameEn":"Shfelat Yehuda","timeStamp":"2021-05-10 18:02:17"},{"name":"מעלה החמישה","englishName":"Ma'aleh HaHamisha","lat":31.8174,"lon":35.1094,"alertTypeId":1,"areaNameHe":"שפלת יהודה","areaNameEn":"Shfelat Yehuda","timeStamp":"2021-05-10 18:02:17"},{"name":"קריית ענבים","englishName":"Kiryat Anavim","lat":31.8099,"lon":35.1208,"alertTypeId":1,"areaNameHe":"שפלת יהודה","areaNameEn":"Shfelat Yehuda","timeStamp":"2021-05-10 18:02:17"},{"name":"קריית יערים","englishName":"Kiryat Yearim","lat":31.8028,"lon":35.0999,"alertTypeId":1,"areaNameHe":"שפלת יהודה","areaNameEn":"Shfelat Yehuda","timeStamp":"2021-05-10 18:02:17"},{"name":"כסלון","englishName":"Ksalon","lat":31.7743,"lon":35.0482,"alertTypeId":1,"areaNameHe":"שפלת יהודה","areaNameEn":"Shfelat Yehuda","timeStamp":"2021-05-10 18:02:17"},{"name":"בית זית","englishName":"Beit Zayit","lat":31.7831,"lon":35.1611,"alertTypeId":1,"areaNameHe":"ירושלים","areaNameEn":"Jerusalem","timeStamp":"2021-05-10 18:02:33"},{"name":"פנימיית עין כרם","englishName":"Ein Kerem Boarding School","lat":31.7788,"lon":35.1533,"alertTypeId":1,"areaNameHe":"ירושלים","areaNameEn":"Jerusalem","timeStamp":"2021-05-10 18:02:33"},{"name":"בית שמש","englishName":"Beit Shemesh","lat":31.747,"lon":34.9881,"alertTypeId":1,"areaNameHe":"שפלת יהודה","areaNameEn":"Shfelat Yehuda","timeStamp":"2021-05-10 18:02:33"},{"name":"בר גיורא","englishName":"Bar Giora","lat":31.7297,"lon":35.0734,"alertTypeId":1,"areaNameHe":"שפלת יהודה","areaNameEn":"Shfelat Yehuda","timeStamp":"2021-05-10 18:02:33"},{"name":"נס הרים","englishName":"Ness Harim","lat":31.7442,"lon":35.0594,"alertTypeId":1,"areaNameHe":"שפלת יהודה","areaNameEn":"Shfelat Yehuda","timeStamp":"2021-05-10 18:02:33"},{"name":"זנוח","englishName":"Zanoah","lat":31.7338,"lon":34.9994,"alertTypeId":1,"areaNameHe":"שפלת יהודה","areaNameEn":"Shfelat Yehuda","timeStamp":"2021-05-10 18:02:38"},{"name":"קריית גת, כרמי גת","englishName":"Kiryat Gat, Karmei Gat","lat":31.6196,"lon":34.766,"alertTypeId":1,"areaNameHe":"לכיש","areaNameEn":"Lakhish","timeStamp":"2021-05-10 18:02:45"},{"name":"שחר","englishName":"Shachar","lat":31.6184063,"lon":34.7240639,"alertTypeId":1,"areaNameHe":"לכיש","areaNameEn":"Lakhish","timeStamp":"2021-05-10 18:02:55"},{"name":"אבן ספיר","englishName":"Even Sapir","lat":31.7625,"lon":35.135,"alertTypeId":1,"areaNameHe":"ירושלים","areaNameEn":"Jerusalem","timeStamp":"2021-05-10 18:02:55"},{"name":"זכריה","englishName":"Zekharia","lat":31.7088,"lon":34.9447,"alertTypeId":1,"areaNameHe":"שפלת יהודה","areaNameEn":"Shfelat Yehuda","timeStamp":"2021-05-10 18:03:11"},{"name":"עגור","englishName":"Agur","lat":31.6975,"lon":34.912,"alertTypeId":1,"areaNameHe":"שפלת יהודה","areaNameEn":"Shfelat Yehuda","timeStamp":"2021-05-10 18:03:11"},{"name":"שדות מיכה","englishName":"Sdot Micha","lat":31.7214,"lon":34.9207,"alertTypeId":1,"areaNameHe":"שפלת יהודה","areaNameEn":"Shfelat Yehuda","timeStamp":"2021-05-10 18:03:11"},{"name":"גבעת ישעיהו","englishName":"Givat Ishayahu","lat":31.6717,"lon":34.9437,"alertTypeId":1,"areaNameHe":"שפלת יהודה","areaNameEn":"Shfelat Yehuda","timeStamp":"2021-05-10 18:03:11"},{"name":"נהורה","englishName":"Nehora","lat":31.6213,"lon":34.7045,"alertTypeId":1,"areaNameHe":"לכיש","areaNameEn":"Lakhish","timeStamp":"2021-05-10 18:03:21"},{"name":"ניר ח''ן","englishName":"Nir Chen","lat":31.608906,"lon":34.714282,"alertTypeId":1,"areaNameHe":"לכיש","areaNameEn":"Lakhish","timeStamp":"2021-05-10 18:03:21"},{"name":"רווחה","englishName":"Revacha","lat":31.6487,"lon":34.7337,"alertTypeId":1,"areaNameHe":"לכיש","areaNameEn":"Lakhish","timeStamp":"2021-05-10 18:03:21"},{"name":"ניר עם","englishName":"Nir Am","lat":31.5184,"lon":34.5805,"alertTypeId":1,"areaNameHe":"עוטף עזה","areaNameEn":"Gaza Envelope","timeStamp":"2021-05-10 18:15:41"},{"name":"כפר עזה","englishName":"Kfar Azza","lat":31.4834,"lon":34.5323,"alertTypeId":1,"areaNameHe":"עוטף עזה","areaNameEn":"Gaza Envelope","timeStamp":"2021-05-10 18:15:41"},{"name":"מפלסים","englishName":"Mefalsim","lat":31.5022,"lon":34.5617,"alertTypeId":1,"areaNameHe":"עוטף עזה","areaNameEn":"Gaza Envelope","timeStamp":"2021-05-10 18:15:41"},{"name":"מטווח ניר עם","englishName":"Nir Am Shooting Range","lat":31.5128,"lon":34.5543,"alertTypeId":1,"areaNameHe":"עוטף עזה","areaNameEn":"Gaza Envelope","timeStamp":"2021-05-10 18:15:41"},{"name":"גבים, מכללת ספיר","englishName":"Gavim, Sapir College","lat":31.5071,"lon":34.5974,"alertTypeId":1,"areaNameHe":"עוטף עזה","areaNameEn":"Gaza Envelope","timeStamp":"2021-05-10 18:15:56"},{"name":"שדרות, איבים","englishName":"Sderot, Ibim","lat":31.5313,"lon":34.5984,"alertTypeId":1,"areaNameHe":"עוטף עזה","areaNameEn":"Gaza Envelope","timeStamp":"2021-05-10 18:15:56"},{"name":"בית שקמה","englishName":"Beit Shikma","lat":31.6377,"lon":34.6101,"alertTypeId":1,"areaNameHe":"מערב לכיש","areaNameEn":"Western Lakhish","timeStamp":"2021-05-10 18:17:48"},{"name":"ניצנים","englishName":"Nitzanim","lat":31.7178,"lon":34.6346,"alertTypeId":1,"areaNameHe":"מערב לכיש","areaNameEn":"Western Lakhish","timeStamp":"2021-05-10 18:17:48"},{"name":"אזור תעשייה הדרומי אשקלון","englishName":"Ashkelon Southern Industrial Zone","lat":31.6361,"lon":34.5545,"alertTypeId":1,"areaNameHe":"מערב לכיש","areaNameEn":"Western Lakhish","timeStamp":"2021-05-10 18:17:48"},{"name":"גיאה","englishName":"Ge'a","lat":31.6285,"lon":34.6027,"alertTypeId":1,"areaNameHe":"מערב לכיש","areaNameEn":"Western Lakhish","timeStamp":"2021-05-10 18:17:48"},{"name":"מבקיעים","englishName":"Mavki'im","lat":31.6225,"lon":34.5774,"alertTypeId":1,"areaNameHe":"מערב לכיש","areaNameEn":"Western Lakhish","timeStamp":"2021-05-10 18:17:48"},{"name":"בת הדר","englishName":"Bat Hadar","lat":31.6481,"lon":34.5971,"alertTypeId":1,"areaNameHe":"מערב לכיש","areaNameEn":"Western Lakhish","timeStamp":"2021-05-10 18:17:53"},{"name":"זיקים","englishName":"Zikim","lat":31.6072,"lon":34.521,"alertTypeId":1,"areaNameHe":"עוטף עזה","areaNameEn":"Gaza Envelope","timeStamp":"2021-05-10 18:17:53"},{"name":"יד מרדכי","englishName":"Yad Mordechai","lat":31.587,"lon":34.5575,"alertTypeId":1,"areaNameHe":"עוטף עזה","areaNameEn":"Gaza Envelope","timeStamp":"2021-05-10 18:17:53"},{"name":"כרמיה","englishName":"Karmia","lat":31.6027,"lon":34.5404,"alertTypeId":1,"areaNameHe":"עוטף עזה","areaNameEn":"Gaza Envelope","timeStamp":"2021-05-10 18:17:53"},{"name":"נתיב העשרה","englishName":"Netiv HaAssara","lat":31.5724,"lon":34.5393,"alertTypeId":1,"areaNameHe":"עוטף עזה","areaNameEn":"Gaza Envelope","timeStamp":"2021-05-10 18:17:53"},{"name":"תלמי יפה","englishName":"Talmei Yaffe","lat":31.6169,"lon":34.6125,"alertTypeId":1,"areaNameHe":"מערב לכיש","areaNameEn":"Western Lakhish","timeStamp":"2021-05-10 18:17:53"},{"name":"אזור תעשייה צפוני אשקלון","englishName":"Ashkelon Northern Industrial Zone","lat":31.6647,"lon":34.5981,"alertTypeId":1,"areaNameHe":"מערב לכיש","areaNameEn":"Western Lakhish","timeStamp":"2021-05-10 18:17:53"},{"name":"ניצן","englishName":"Nitzan","lat":31.7375,"lon":34.6308,"alertTypeId":1,"areaNameHe":"מערב לכיש","areaNameEn":"Western Lakhish","timeStamp":"2021-05-10 18:17:54"},{"name":"גברעם","englishName":"Gvaram","lat":31.5915,"lon":34.6122,"alertTypeId":1,"areaNameHe":"עוטף עזה","areaNameEn":"Gaza Envelope","timeStamp":"2021-05-10 18:18:04"},{"name":"משען","englishName":"Mishan","lat":31.6569,"lon":34.6216,"alertTypeId":1,"areaNameHe":"מערב לכיש","areaNameEn":"Western Lakhish","timeStamp":"2021-05-10 18:18:04"},{"name":"מפלסים","englishName":"Mefalsim","lat":31.5022,"lon":34.5617,"alertTypeId":1,"areaNameHe":"עוטף עזה","areaNameEn":"Gaza Envelope","timeStamp":"2021-05-10 18:25:38"},{"name":"מטווח ניר עם","englishName":"Nir Am Shooting Range","lat":31.5128,"lon":34.5543,"alertTypeId":1,"areaNameHe":"עוטף עזה","areaNameEn":"Gaza Envelope","timeStamp":"2021-05-10 18:25:38"},{"name":"גבים, מכללת ספיר","englishName":"Gavim, Sapir College","lat":31.5071,"lon":34.5974,"alertTypeId":1,"areaNameHe":"עוטף עזה","areaNameEn":"Gaza Envelope","timeStamp":"2021-05-10 18:25:38"},{"name":"ניר עם","englishName":"Nir Am","lat":31.5184,"lon":34.5805,"alertTypeId":1,"areaNameHe":"עוטף עזה","areaNameEn":"Gaza Envelope","timeStamp":"2021-05-10 18:25:38"},{"name":"שדרות, איבים","englishName":"Sderot, Ibim","lat":31.5313,"lon":34.5984,"alertTypeId":1,"areaNameHe":"עוטף עזה","areaNameEn":"Gaza Envelope","timeStamp":"2021-05-10 18:25:38"},{"name":"חוות שיקמים","englishName":"Havat Shikmim","lat":31.5113,"lon":34.6339,"alertTypeId":1,"areaNameHe":"מערב הנגב","areaNameEn":"Western Negev","timeStamp":"2021-05-10 18:25:38"},{"name":"ארז","englishName":"Erez","lat":31.5597,"lon":34.565,"alertTypeId":1,"areaNameHe":"עוטף עזה","areaNameEn":"Gaza Envelope","timeStamp":"2021-05-10 18:25:48"},{"name":"מטווח ניר עם","englishName":"Nir Am Shooting Range","lat":31.5128,"lon":34.5543,"alertTypeId":1,"areaNameHe":"עוטף עזה","areaNameEn":"Gaza Envelope","timeStamp":"2021-05-10 18:34:07"},{"name":"ניר עם","englishName":"Nir Am","lat":31.5184,"lon":34.5805,"alertTypeId":1,"areaNameHe":"עוטף עזה","areaNameEn":"Gaza Envelope","timeStamp":"2021-05-10 18:34:22"},{"name":"שדרות, איבים","englishName":"Sderot, Ibim","lat":31.5313,"lon":34.5984,"alertTypeId":1,"areaNameHe":"עוטף עזה","areaNameEn":"Gaza Envelope","timeStamp":"2021-05-10 18:34:22"},{"name":"ארז","englishName":"Erez","lat":31.5597,"lon":34.565,"alertTypeId":1,"areaNameHe":"עוטף עזה","areaNameEn":"Gaza Envelope","timeStamp":"2021-05-10 18:34:22"},{"name":"מפלסים","englishName":"Mefalsim","lat":31.5022,"lon":34.5617,"alertTypeId":1,"areaNameHe":"עוטף עזה","areaNameEn":"Gaza Envelope","timeStamp":"2021-05-10 18:34:22"},{"name":"נתיב העשרה","englishName":"Netiv HaAssara","lat":31.5724,"lon":34.5393,"alertTypeId":1,"areaNameHe":"עוטף עזה","areaNameEn":"Gaza Envelope","timeStamp":"2021-05-10 18:34:49"},{"name":"גבים, מכללת ספיר","englishName":"Gavim, Sapir College","lat":31.5071,"lon":34.5974,"alertTypeId":1,"areaNameHe":"עוטף עזה","areaNameEn":"Gaza Envelope","timeStamp":"2021-05-10 18:37:56"},{"name":"ניר עם","englishName":"Nir Am","lat":31.5184,"lon":34.5805,"alertTypeId":1,"areaNameHe":"עוטף עזה","areaNameEn":"Gaza Envelope","timeStamp":"2021-05-10 18:37:56"},{"name":"שדרות, איבים","englishName":"Sderot, Ibim","lat":31.5313,"lon":34.5984,"alertTypeId":1,"areaNameHe":"עוטף עזה","areaNameEn":"Gaza Envelope","timeStamp":"2021-05-10 18:37:56"},{"name":"מטווח ניר עם","englishName":"Nir Am Shooting Range","lat":31.5128,"lon":34.5543,"alertTypeId":1,"areaNameHe":"עוטף עזה","areaNameEn":"Gaza Envelope","timeStamp":"2021-05-10 18:37:56"},{"name":"אור הנר","englishName":"Or HaNer","lat":31.5562,"lon":34.6023,"alertTypeId":1,"areaNameHe":"עוטף עזה","areaNameEn":"Gaza Envelope","timeStamp":"2021-05-10 18:38:06"},{"name":"ניר עם","englishName":"Nir Am","lat":31.5184,"lon":34.5805,"alertTypeId":1,"areaNameHe":"עוטף עזה","areaNameEn":"Gaza Envelope","timeStamp":"2021-05-10 18:43:33"},{"name":"אור הנר","englishName":"Or HaNer","lat":31.5562,"lon":34.6023,"alertTypeId":1,"areaNameHe":"עוטף עזה","areaNameEn":"Gaza Envelope","timeStamp":"2021-05-10 18:43:33"},{"name":"מטווח ניר עם","englishName":"Nir Am Shooting Range","lat":31.5128,"lon":34.5543,"alertTypeId":1,"areaNameHe":"עוטף עזה","areaNameEn":"Gaza Envelope","timeStamp":"2021-05-10 18:43:33"},{"name":"נתיב העשרה","englishName":"Netiv HaAssara","lat":31.5724,"lon":34.5393,"alertTypeId":1,"areaNameHe":"עוטף עזה","areaNameEn":"Gaza Envelope","timeStamp":"2021-05-10 18:59:13"},{"name":"נחל עוז","englishName":"Nachal Oz","lat":31.4727,"lon":34.4977,"alertTypeId":1,"areaNameHe":"עוטף עזה","areaNameEn":"Gaza Envelope","timeStamp":"2021-05-10 19:06:39"},{"name":"מפלסים","englishName":"Mefalsim","lat":31.5022,"lon":34.5617,"alertTypeId":1,"areaNameHe":"עוטף עזה","areaNameEn":"Gaza Envelope","timeStamp":"2021-05-10 19:08:46"},{"name":"מטווח ניר עם","englishName":"Nir Am Shooting Range","lat":31.5128,"lon":34.5543,"alertTypeId":1,"areaNameHe":"עוטף עזה","areaNameEn":"Gaza Envelope","timeStamp":"2021-05-10 19:08:46"},{"name":"שדרות, איבים","englishName":"Sderot, Ibim","lat":31.5313,"lon":34.5984,"alertTypeId":1,"areaNameHe":"עוטף עזה","areaNameEn":"Gaza Envelope","timeStamp":"2021-05-10 19:09:01"},{"name":"כפר עזה","englishName":"Kfar Azza","lat":31.4834,"lon":34.5323,"alertTypeId":1,"areaNameHe":"עוטף עזה","areaNameEn":"Gaza Envelope","timeStamp":"2021-05-10 19:09:01"},{"name":"סעד","englishName":"Sa'ad","lat":31.4702,"lon":34.5344,"alertTypeId":1,"areaNameHe":"עוטף עזה","areaNameEn":"Gaza Envelope","timeStamp":"2021-05-10 19:09:01"},{"name":"נחל עוז","englishName":"Nachal Oz","lat":31.4727,"lon":34.4977,"alertTypeId":1,"areaNameHe":"עוטף עזה","areaNameEn":"Gaza Envelope","timeStamp":"2021-05-10 19:09:07"},{"name":"שדרות, איבים","englishName":"Sderot, Ibim","lat":31.5313,"lon":34.5984,"alertTypeId":1,"areaNameHe":"עוטף עזה","areaNameEn":"Gaza Envelope","timeStamp":"2021-05-10 19:30:40"},{"name":"ניר עם","englishName":"Nir Am","lat":31.5184,"lon":34.5805,"alertTypeId":1,"areaNameHe":"עוטף עזה","areaNameEn":"Gaza Envelope","timeStamp":"2021-05-10 19:30:50"},{"name":"ארז","englishName":"Erez","lat":31.5597,"lon":34.565,"alertTypeId":1,"areaNameHe":"עוטף עזה","areaNameEn":"Gaza Envelope","timeStamp":"2021-05-10 19:30:50"},{"name":"מטווח ניר עם","englishName":"Nir Am Shooting Range","lat":31.5128,"lon":34.5543,"alertTypeId":1,"areaNameHe":"עוטף עזה","areaNameEn":"Gaza Envelope","timeStamp":"2021-05-10 19:30:50"},{"name":"זיקים","englishName":"Zikim","lat":31.6072,"lon":34.521,"alertTypeId":1,"areaNameHe":"עוטף עזה","areaNameEn":"Gaza Envelope","timeStamp":"2021-05-10 19:31:27"},{"name":"כרמיה","englishName":"Karmia","lat":31.6027,"lon":34.5404,"alertTypeId":1,"areaNameHe":"עוטף עזה","areaNameEn":"Gaza Envelope","timeStamp":"2021-05-10 19:31:27"},{"name":"נתיב העשרה","englishName":"Netiv HaAssara","lat":31.5724,"lon":34.5393,"alertTypeId":1,"areaNameHe":"עוטף עזה","areaNameEn":"Gaza Envelope","timeStamp":"2021-05-10 19:31:27"},{"name":"אזור תעשייה הדרומי אשקלון","englishName":"Ashkelon Southern Industrial Zone","lat":31.6361,"lon":34.5545,"alertTypeId":1,"areaNameHe":"מערב לכיש","areaNameEn":"Western Lakhish","timeStamp":"2021-05-10 19:31:27"},{"name":"מבקיעים","englishName":"Mavki'im","lat":31.6225,"lon":34.5774,"alertTypeId":1,"areaNameHe":"מערב לכיש","areaNameEn":"Western Lakhish","timeStamp":"2021-05-10 19:31:42"},{"name":"זיקים","englishName":"Zikim","lat":31.6072,"lon":34.521,"alertTypeId":1,"areaNameHe":"עוטף עזה","areaNameEn":"Gaza Envelope","timeStamp":"2021-05-10 20:20:19"},{"name":"יד מרדכי","englishName":"Yad Mordechai","lat":31.587,"lon":34.5575,"alertTypeId":1,"areaNameHe":"עוטף עזה","areaNameEn":"Gaza Envelope","timeStamp":"2021-05-10 20:20:19"},{"name":"נתיב העשרה","englishName":"Netiv HaAssara","lat":31.5724,"lon":34.5393,"alertTypeId":1,"areaNameHe":"עוטף עזה","areaNameEn":"Gaza Envelope","timeStamp":"2021-05-10 20:20:19"},{"name":"כרמיה","englishName":"Karmia","lat":31.6027,"lon":34.5404,"alertTypeId":1,"areaNameHe":"עוטף עזה","areaNameEn":"Gaza Envelope","timeStamp":"2021-05-10 20:20:19"},{"name":"סופה","englishName":"Sufa","lat":31.2383,"lon":34.342,"alertTypeId":1,"areaNameHe":"עוטף עזה","areaNameEn":"Gaza Envelope","timeStamp":"2021-05-10 20:20:50"},{"name":"חולית","englishName":"Holit","lat":31.2306,"lon":34.3273,"alertTypeId":1,"areaNameHe":"עוטף עזה","areaNameEn":"Gaza Envelope","timeStamp":"2021-05-10 20:20:56"},{"name":"שדרות, איבים","englishName":"Sderot, Ibim","lat":31.5313,"lon":34.5984,"alertTypeId":1,"areaNameHe":"עוטף עזה","areaNameEn":"Gaza Envelope","timeStamp":"2021-05-10 20:21:42"},{"name":"ניר עם","englishName":"Nir Am","lat":31.5184,"lon":34.5805,"alertTypeId":1,"areaNameHe":"עוטף עזה","areaNameEn":"Gaza Envelope","timeStamp":"2021-05-10 20:21:47"},{"name":"ארז","englishName":"Erez","lat":31.5597,"lon":34.565,"alertTypeId":1,"areaNameHe":"עוטף עזה","areaNameEn":"Gaza Envelope","timeStamp":"2021-05-10 20:21:47"},{"name":"נתיב העשרה","englishName":"Netiv HaAssara","lat":31.5724,"lon":34.5393,"alertTypeId":1,"areaNameHe":"עוטף עזה","areaNameEn":"Gaza Envelope","timeStamp":"2021-05-10 20:21:47"},{"name":"מטווח ניר עם","englishName":"Nir Am Shooting Range","lat":31.5128,"lon":34.5543,"alertTypeId":1,"areaNameHe":"עוטף עזה","areaNameEn":"Gaza Envelope","timeStamp":"2021-05-10 20:21:47"},{"name":"שדרות, איבים","englishName":"Sderot, Ibim","lat":31.5313,"lon":34.5984,"alertTypeId":1,"areaNameHe":"עוטף עזה","areaNameEn":"Gaza Envelope","timeStamp":"2021-05-10 20:26:15"},{"name":"כרם שלום","englishName":"Kerem Shalom","lat":31.2283,"lon":34.2846,"alertTypeId":1,"areaNameHe":"עוטף עזה","areaNameEn":"Gaza Envelope","timeStamp":"2021-05-10 20:37:38"},{"name":"ניר עם","englishName":"Nir Am","lat":31.5184,"lon":34.5805,"alertTypeId":1,"areaNameHe":"עוטף עזה","areaNameEn":"Gaza Envelope","timeStamp":"2021-05-10 20:40:10"},{"name":"שדרות, איבים","englishName":"Sderot, Ibim","lat":31.5313,"lon":34.5984,"alertTypeId":1,"areaNameHe":"עוטף עזה","areaNameEn":"Gaza Envelope","timeStamp":"2021-05-10 20:40:10"},{"name":"כרם שלום","englishName":"Kerem Shalom","lat":31.2283,"lon":34.2846,"alertTypeId":1,"areaNameHe":"עוטף עזה","areaNameEn":"Gaza Envelope","timeStamp":"2021-05-10 20:52:32"},{"name":"אזור תעשייה הדרומי אשקלון","englishName":"Ashkelon Southern Industrial Zone","lat":31.6361,"lon":34.5545,"alertTypeId":1,"areaNameHe":"מערב לכיש","areaNameEn":"Western Lakhish","timeStamp":"2021-05-10 21:00:20"},{"name":"כרמיה","englishName":"Karmia","lat":31.6027,"lon":34.5404,"alertTypeId":1,"areaNameHe":"עוטף עזה","areaNameEn":"Gaza Envelope","timeStamp":"2021-05-10 21:00:25"},{"name":"אזור תעשייה צפוני אשקלון","englishName":"Ashkelon Northern Industrial Zone","lat":31.6647,"lon":34.5981,"alertTypeId":1,"areaNameHe":"מערב לכיש","areaNameEn":"Western Lakhish","timeStamp":"2021-05-10 21:00:31"},{"name":"זיקים","englishName":"Zikim","lat":31.6072,"lon":34.521,"alertTypeId":1,"areaNameHe":"עוטף עזה","areaNameEn":"Gaza Envelope","timeStamp":"2021-05-10 21:00:31"},{"name":"יד מרדכי","englishName":"Yad Mordechai","lat":31.587,"lon":34.5575,"alertTypeId":1,"areaNameHe":"עוטף עזה","areaNameEn":"Gaza Envelope","timeStamp":"2021-05-10 21:00:36"},{"name":"נתיב העשרה","englishName":"Netiv HaAssara","lat":31.5724,"lon":34.5393,"alertTypeId":1,"areaNameHe":"עוטף עזה","areaNameEn":"Gaza Envelope","timeStamp":"2021-05-10 21:00:36"},{"name":"אזור תעשייה צפוני אשקלון","englishName":"Ashkelon Northern Industrial Zone","lat":31.6647,"lon":34.5981,"alertTypeId":1,"areaNameHe":"מערב לכיש","areaNameEn":"Western Lakhish","timeStamp":"2021-05-10 21:08:41"},{"name":"אזור תעשייה הדרומי אשקלון","englishName":"Ashkelon Southern Industrial Zone","lat":31.6361,"lon":34.5545,"alertTypeId":1,"areaNameHe":"מערב לכיש","areaNameEn":"Western Lakhish","timeStamp":"2021-05-10 21:08:41"},{"name":"זיקים","englishName":"Zikim","lat":31.6072,"lon":34.521,"alertTypeId":1,"areaNameHe":"עוטף עזה","areaNameEn":"Gaza Envelope","timeStamp":"2021-05-10 21:08:46"},{"name":"כרמיה","englishName":"Karmia","lat":31.6027,"lon":34.5404,"alertTypeId":1,"areaNameHe":"עוטף עזה","areaNameEn":"Gaza Envelope","timeStamp":"2021-05-10 21:08:46"},{"name":"נתיב העשרה","englishName":"Netiv HaAssara","lat":31.5724,"lon":34.5393,"alertTypeId":1,"areaNameHe":"עוטף עזה","areaNameEn":"Gaza Envelope","timeStamp":"2021-05-10 21:08:46"},{"name":"כרם שלום","englishName":"Kerem Shalom","lat":31.2283,"lon":34.2846,"alertTypeId":1,"areaNameHe":"עוטף עזה","areaNameEn":"Gaza Envelope","timeStamp":"2021-05-10 21:10:13"},{"name":"עין השלושה","englishName":"Ein HaShlosha","lat":31.3517,"lon":34.4035,"alertTypeId":1,"areaNameHe":"עוטף עזה","areaNameEn":"Gaza Envelope","timeStamp":"2021-05-10 21:36:33"},{"name":"שדרות, איבים","englishName":"Sderot, Ibim","lat":31.5313,"lon":34.5984,"alertTypeId":1,"areaNameHe":"עוטף עזה","areaNameEn":"Gaza Envelope","timeStamp":"2021-05-10 21:43:04"},{"name":"נתיב העשרה","englishName":"Netiv HaAssara","lat":31.5724,"lon":34.5393,"alertTypeId":1,"areaNameHe":"עוטף עזה","areaNameEn":"Gaza Envelope","timeStamp":"2021-05-10 21:43:09"},{"name":"גבים, מכללת ספיר","englishName":"Gavim, Sapir College","lat":31.5071,"lon":34.5974,"alertTypeId":1,"areaNameHe":"עוטף עזה","areaNameEn":"Gaza Envelope","timeStamp":"2021-05-10 21:43:09"},{"name":"ניר עם","englishName":"Nir Am","lat":31.5184,"lon":34.5805,"alertTypeId":1,"areaNameHe":"עוטף עזה","areaNameEn":"Gaza Envelope","timeStamp":"2021-05-10 21:43:09"},{"name":"ארז","englishName":"Erez","lat":31.5597,"lon":34.565,"alertTypeId":1,"areaNameHe":"עוטף עזה","areaNameEn":"Gaza Envelope","timeStamp":"2021-05-10 21:43:09"},{"name":"מפלסים","englishName":"Mefalsim","lat":31.5022,"lon":34.5617,"alertTypeId":1,"areaNameHe":"עוטף עזה","areaNameEn":"Gaza Envelope","timeStamp":"2021-05-10 21:43:09"},{"name":"מטווח ניר עם","englishName":"Nir Am Shooting Range","lat":31.5128,"lon":34.5543,"alertTypeId":1,"areaNameHe":"עוטף עזה","areaNameEn":"Gaza Envelope","timeStamp":"2021-05-10 21:43:09"},{"name":"ניר עם","englishName":"Nir Am","lat":31.5184,"lon":34.5805,"alertTypeId":1,"areaNameHe":"עוטף עזה","areaNameEn":"Gaza Envelope","timeStamp":"2021-05-10 21:47:32"},{"name":"שדרות, איבים","englishName":"Sderot, Ibim","lat":31.5313,"lon":34.5984,"alertTypeId":1,"areaNameHe":"עוטף עזה","areaNameEn":"Gaza Envelope","timeStamp":"2021-05-10 21:47:32"},{"name":"ארז","englishName":"Erez","lat":31.5597,"lon":34.565,"alertTypeId":1,"areaNameHe":"עוטף עזה","areaNameEn":"Gaza Envelope","timeStamp":"2021-05-10 21:47:32"},{"name":"מטווח ניר עם","englishName":"Nir Am Shooting Range","lat":31.5128,"lon":34.5543,"alertTypeId":1,"areaNameHe":"עוטף עזה","areaNameEn":"Gaza Envelope","timeStamp":"2021-05-10 21:47:32"},{"name":"אזור תעשייה הדרומי אשקלון","englishName":"Ashkelon Southern Industrial Zone","lat":31.6361,"lon":34.5545,"alertTypeId":1,"areaNameHe":"מערב לכיש","areaNameEn":"Western Lakhish","timeStamp":"2021-05-10 21:58:50"},{"name":"זיקים","englishName":"Zikim","lat":31.6072,"lon":34.521,"alertTypeId":1,"areaNameHe":"עוטף עזה","areaNameEn":"Gaza Envelope","timeStamp":"2021-05-10 21:58:50"},{"name":"כרמיה","englishName":"Karmia","lat":31.6027,"lon":34.5404,"alertTypeId":1,"areaNameHe":"עוטף עזה","areaNameEn":"Gaza Envelope","timeStamp":"2021-05-10 21:58:55"},{"name":"נתיב העשרה","englishName":"Netiv HaAssara","lat":31.5724,"lon":34.5393,"alertTypeId":1,"areaNameHe":"עוטף עזה","areaNameEn":"Gaza Envelope","timeStamp":"2021-05-10 21:58:55"},{"name":"זיקים","englishName":"Zikim","lat":31.6072,"lon":34.521,"alertTypeId":1,"areaNameHe":"עוטף עזה","areaNameEn":"Gaza Envelope","timeStamp":"2021-05-10 22:01:02"},{"name":"אזור תעשייה הדרומי אשקלון","englishName":"Ashkelon Southern Industrial Zone","lat":31.6361,"lon":34.5545,"alertTypeId":1,"areaNameHe":"מערב לכיש","areaNameEn":"Western Lakhish","timeStamp":"2021-05-10 22:01:02"},{"name":"אזור תעשייה צפוני אשקלון","englishName":"Ashkelon Northern Industrial Zone","lat":31.6647,"lon":34.5981,"alertTypeId":1,"areaNameHe":"מערב לכיש","areaNameEn":"Western Lakhish","timeStamp":"2021-05-10 22:01:02"},{"name":"ברכיה","englishName":"Berekhya","lat":31.668,"lon":34.6243,"alertTypeId":1,"areaNameHe":"מערב לכיש","areaNameEn":"Western Lakhish","timeStamp":"2021-05-10 22:01:07"},{"name":"משען","englishName":"Mishan","lat":31.6569,"lon":34.6216,"alertTypeId":1,"areaNameHe":"מערב לכיש","areaNameEn":"Western Lakhish","timeStamp":"2021-05-10 22:01:07"},{"name":"כרמיה","englishName":"Karmia","lat":31.6027,"lon":34.5404,"alertTypeId":1,"areaNameHe":"עוטף עזה","areaNameEn":"Gaza Envelope","timeStamp":"2021-05-10 22:01:07"},{"name":"בית שקמה","englishName":"Beit Shikma","lat":31.6377,"lon":34.6101,"alertTypeId":1,"areaNameHe":"מערב לכיש","areaNameEn":"Western Lakhish","timeStamp":"2021-05-10 22:01:07"},{"name":"בת הדר","englishName":"Bat Hadar","lat":31.6481,"lon":34.5971,"alertTypeId":1,"areaNameHe":"מערב לכיש","areaNameEn":"Western Lakhish","timeStamp":"2021-05-10 22:01:07"},{"name":"מבקיעים","englishName":"Mavki'im","lat":31.6225,"lon":34.5774,"alertTypeId":1,"areaNameHe":"מערב לכיש","areaNameEn":"Western Lakhish","timeStamp":"2021-05-10 22:01:07"},{"name":"נתיב העשרה","englishName":"Netiv HaAssara","lat":31.5724,"lon":34.5393,"alertTypeId":1,"areaNameHe":"עוטף עזה","areaNameEn":"Gaza Envelope","timeStamp":"2021-05-10 22:01:18"},{"name":"יד מרדכי","englishName":"Yad Mordechai","lat":31.587,"lon":34.5575,"alertTypeId":1,"areaNameHe":"עוטף עזה","areaNameEn":"Gaza Envelope","timeStamp":"2021-05-10 22:01:18"},{"name":"כרם שלום","englishName":"Kerem Shalom","lat":31.2283,"lon":34.2846,"alertTypeId":1,"areaNameHe":"עוטף עזה","areaNameEn":"Gaza Envelope","timeStamp":"2021-05-10 22:06:35"},{"name":"אזור תעשייה הדרומי אשקלון","englishName":"Ashkelon Southern Industrial Zone","lat":31.6361,"lon":34.5545,"alertTypeId":1,"areaNameHe":"מערב לכיש","areaNameEn":"Western Lakhish","timeStamp":"2021-05-10 22:17:25"},{"name":"נתיב העשרה","englishName":"Netiv HaAssara","lat":31.5724,"lon":34.5393,"alertTypeId":1,"areaNameHe":"עוטף עזה","areaNameEn":"Gaza Envelope","timeStamp":"2021-05-10 22:17:35"},{"name":"אזור תעשייה צפוני אשקלון","englishName":"Ashkelon Northern Industrial Zone","lat":31.6647,"lon":34.5981,"alertTypeId":1,"areaNameHe":"מערב לכיש","areaNameEn":"Western Lakhish","timeStamp":"2021-05-10 22:17:35"},{"name":"בת הדר","englishName":"Bat Hadar","lat":31.6481,"lon":34.5971,"alertTypeId":1,"areaNameHe":"מערב לכיש","areaNameEn":"Western Lakhish","timeStamp":"2021-05-10 22:17:35"},{"name":"זיקים","englishName":"Zikim","lat":31.6072,"lon":34.521,"alertTypeId":1,"areaNameHe":"עוטף עזה","areaNameEn":"Gaza Envelope","timeStamp":"2021-05-10 22:17:35"},{"name":"כפר סילבר","englishName":"Kfar Silver","lat":31.673,"lon":34.6121,"alertTypeId":1,"areaNameHe":"מערב לכיש","areaNameEn":"Western Lakhish","timeStamp":"2021-05-10 22:17:35"},{"name":"כרמיה","englishName":"Karmia","lat":31.6027,"lon":34.5404,"alertTypeId":1,"areaNameHe":"עוטף עזה","areaNameEn":"Gaza Envelope","timeStamp":"2021-05-10 22:17:35"},{"name":"יד מרדכי","englishName":"Yad Mordechai","lat":31.587,"lon":34.5575,"alertTypeId":1,"areaNameHe":"עוטף עזה","areaNameEn":"Gaza Envelope","timeStamp":"2021-05-10 22:17:50"},{"name":"מבקיעים","englishName":"Mavki'im","lat":31.6225,"lon":34.5774,"alertTypeId":1,"areaNameHe":"מערב לכיש","areaNameEn":"Western Lakhish","timeStamp":"2021-05-10 22:18:01"},{"name":"אזור תעשייה הדרומי אשקלון","englishName":"Ashkelon Southern Industrial Zone","lat":31.6361,"lon":34.5545,"alertTypeId":1,"areaNameHe":"מערב לכיש","areaNameEn":"Western Lakhish","timeStamp":"2021-05-10 23:06:13"},{"name":"זיקים","englishName":"Zikim","lat":31.6072,"lon":34.521,"alertTypeId":1,"areaNameHe":"עוטף עזה","areaNameEn":"Gaza Envelope","timeStamp":"2021-05-10 23:06:18"},{"name":"כרמיה","englishName":"Karmia","lat":31.6027,"lon":34.5404,"alertTypeId":1,"areaNameHe":"עוטף עזה","areaNameEn":"Gaza Envelope","timeStamp":"2021-05-10 23:06:18"},{"name":"נתיב העשרה","englishName":"Netiv HaAssara","lat":31.5724,"lon":34.5393,"alertTypeId":1,"areaNameHe":"עוטף עזה","areaNameEn":"Gaza Envelope","timeStamp":"2021-05-10 23:06:18"},{"name":"גבים, מכללת ספיר","englishName":"Gavim, Sapir College","lat":31.5071,"lon":34.5974,"alertTypeId":1,"areaNameHe":"עוטף עזה","areaNameEn":"Gaza Envelope","timeStamp":"2021-05-10 23:07:20"},{"name":"ניר עם","englishName":"Nir Am","lat":31.5184,"lon":34.5805,"alertTypeId":1,"areaNameHe":"עוטף עזה","areaNameEn":"Gaza Envelope","timeStamp":"2021-05-10 23:07:20"},{"name":"שדרות, איבים","englishName":"Sderot, Ibim","lat":31.5313,"lon":34.5984,"alertTypeId":1,"areaNameHe":"עוטף עזה","areaNameEn":"Gaza Envelope","timeStamp":"2021-05-10 23:07:20"},{"name":"ארז","englishName":"Erez","lat":31.5597,"lon":34.565,"alertTypeId":1,"areaNameHe":"עוטף עזה","areaNameEn":"Gaza Envelope","timeStamp":"2021-05-10 23:07:46"},{"name":"מטווח ניר עם","englishName":"Nir Am Shooting Range","lat":31.5128,"lon":34.5543,"alertTypeId":1,"areaNameHe":"עוטף עזה","areaNameEn":"Gaza Envelope","timeStamp":"2021-05-10 23:07:46"},{"name":"כרם שלום","englishName":"Kerem Shalom","lat":31.2283,"lon":34.2846,"alertTypeId":1,"areaNameHe":"עוטף עזה","areaNameEn":"Gaza Envelope","timeStamp":"2021-05-10 23:13:29"},{"name":"חולית","englishName":"Holit","lat":31.2306,"lon":34.3273,"alertTypeId":1,"areaNameHe":"עוטף עזה","areaNameEn":"Gaza Envelope","timeStamp":"2021-05-10 23:13:29"},{"name":"אזור תעשייה הדרומי אשקלון","englishName":"Ashkelon Southern Industrial Zone","lat":31.6361,"lon":34.5545,"alertTypeId":1,"areaNameHe":"מערב לכיש","areaNameEn":"Western Lakhish","timeStamp":"2021-05-10 23:14:06"},{"name":"זיקים","englishName":"Zikim","lat":31.6072,"lon":34.521,"alertTypeId":1,"areaNameHe":"עוטף עזה","areaNameEn":"Gaza Envelope","timeStamp":"2021-05-10 23:14:17"},{"name":"כרמיה","englishName":"Karmia","lat":31.6027,"lon":34.5404,"alertTypeId":1,"areaNameHe":"עוטף עזה","areaNameEn":"Gaza Envelope","timeStamp":"2021-05-10 23:14:17"},{"name":"נתיב העשרה","englishName":"Netiv HaAssara","lat":31.5724,"lon":34.5393,"alertTypeId":1,"areaNameHe":"עוטף עזה","areaNameEn":"Gaza Envelope","timeStamp":"2021-05-10 23:14:17"},{"name":"זיקים","englishName":"Zikim","lat":31.6072,"lon":34.521,"alertTypeId":1,"areaNameHe":"עוטף עזה","areaNameEn":"Gaza Envelope","timeStamp":"2021-05-10 23:28:17"},{"name":"נתיב העשרה","englishName":"Netiv HaAssara","lat":31.5724,"lon":34.5393,"alertTypeId":1,"areaNameHe":"עוטף עזה","areaNameEn":"Gaza Envelope","timeStamp":"2021-05-10 23:28:17"},{"name":"מפלסים","englishName":"Mefalsim","lat":31.5022,"lon":34.5617,"alertTypeId":1,"areaNameHe":"עוטף עזה","areaNameEn":"Gaza Envelope","timeStamp":"2021-05-10 23:36:59"},{"name":"ניר עם","englishName":"Nir Am","lat":31.5184,"lon":34.5805,"alertTypeId":1,"areaNameHe":"עוטף עזה","areaNameEn":"Gaza Envelope","timeStamp":"2021-05-10 23:36:59"},{"name":"שדרות, איבים","englishName":"Sderot, Ibim","lat":31.5313,"lon":34.5984,"alertTypeId":1,"areaNameHe":"עוטף עזה","areaNameEn":"Gaza Envelope","timeStamp":"2021-05-10 23:36:59"},{"name":"מטווח ניר עם","englishName":"Nir Am Shooting Range","lat":31.5128,"lon":34.5543,"alertTypeId":1,"areaNameHe":"עוטף עזה","areaNameEn":"Gaza Envelope","timeStamp":"2021-05-10 23:36:59"},{"name":"שדרות, איבים","englishName":"Sderot, Ibim","lat":31.5313,"lon":34.5984,"alertTypeId":1,"areaNameHe":"עוטף עזה","areaNameEn":"Gaza Envelope","timeStamp":"2021-05-10 23:51:22"},{"name":"גבים, מכללת ספיר","englishName":"Gavim, Sapir College","lat":31.5071,"lon":34.5974,"alertTypeId":1,"areaNameHe":"עוטף עזה","areaNameEn":"Gaza Envelope","timeStamp":"2021-05-10 23:51:27"},{"name":"ניר עם","englishName":"Nir Am","lat":31.5184,"lon":34.5805,"alertTypeId":1,"areaNameHe":"עוטף עזה","areaNameEn":"Gaza Envelope","timeStamp":"2021-05-10 23:51:27"},{"name":"אור הנר","englishName":"Or HaNer","lat":31.5562,"lon":34.6023,"alertTypeId":1,"areaNameHe":"עוטף עזה","areaNameEn":"Gaza Envelope","timeStamp":"2021-05-10 23:51:27"},{"name":"ארז","englishName":"Erez","lat":31.5597,"lon":34.565,"alertTypeId":1,"areaNameHe":"עוטף עזה","areaNameEn":"Gaza Envelope","timeStamp":"2021-05-10 23:51:27"},{"name":"סופה","englishName":"Sufa","lat":31.2383,"lon":34.342,"alertTypeId":1,"areaNameHe":"עוטף עזה","areaNameEn":"Gaza Envelope","timeStamp":"2021-05-10 23:56:25"},{"name":"פרי גן","englishName":"Pri Gan","lat":31.222,"lon":34.3559,"alertTypeId":1,"areaNameHe":"עוטף עזה","areaNameEn":"Gaza Envelope","timeStamp":"2021-05-10 23:56:25"},{"name":"חולית","englishName":"Holit","lat":31.2306,"lon":34.3273,"alertTypeId":1,"areaNameHe":"עוטף עזה","areaNameEn":"Gaza Envelope","timeStamp":"2021-05-10 23:56:30"}]},{"date":"2021-05-11","alerts":[{"name":"נתיבות","englishName":"Netivot","lat":31.4232,"lon":34.5953,"alertTypeId":1,"areaNameHe":"מערב הנגב","areaNameEn":"Western Negev","timeStamp":"2021-05-11 00:16:39"},{"name":"כפר מימון ותושיה","englishName":"Kfar Maimon and Tushia","lat":31.4324,"lon":34.5384,"alertTypeId":1,"areaNameHe":"עוטף עזה","areaNameEn":"Gaza Envelope","timeStamp":"2021-05-11 00:16:39"},{"name":"בארי","englishName":"Be'eri","lat":31.4245,"lon":34.4926,"alertTypeId":1,"areaNameHe":"עוטף עזה","areaNameEn":"Gaza Envelope","timeStamp":"2021-05-11 00:16:59"},{"name":"שוקדה","englishName":"Shokeda","lat":31.4221,"lon":34.5244,"alertTypeId":1,"areaNameHe":"עוטף עזה","areaNameEn":"Gaza Envelope","timeStamp":"2021-05-11 00:16:59"},{"name":"כפר עזה","englishName":"Kfar Azza","lat":31.4834,"lon":34.5323,"alertTypeId":1,"areaNameHe":"עוטף עזה","areaNameEn":"Gaza Envelope","timeStamp":"2021-05-11 00:21:07"},{"name":"סעד","englishName":"Sa'ad","lat":31.4702,"lon":34.5344,"alertTypeId":1,"areaNameHe":"עוטף עזה","areaNameEn":"Gaza Envelope","timeStamp":"2021-05-11 00:21:22"},{"name":"שדרות, איבים","englishName":"Sderot, Ibim","lat":31.5313,"lon":34.5984,"alertTypeId":1,"areaNameHe":"עוטף עזה","areaNameEn":"Gaza Envelope","timeStamp":"2021-05-11 00:46:10"},{"name":"ניר עם","englishName":"Nir Am","lat":31.5184,"lon":34.5805,"alertTypeId":1,"areaNameHe":"עוטף עזה","areaNameEn":"Gaza Envelope","timeStamp":"2021-05-11 00:46:15"},{"name":"ארז","englishName":"Erez","lat":31.5597,"lon":34.565,"alertTypeId":1,"areaNameHe":"עוטף עזה","areaNameEn":"Gaza Envelope","timeStamp":"2021-05-11 00:46:15"},{"name":"מטווח ניר עם","englishName":"Nir Am Shooting Range","lat":31.5128,"lon":34.5543,"alertTypeId":1,"areaNameHe":"עוטף עזה","areaNameEn":"Gaza Envelope","timeStamp":"2021-05-11 00:46:15"},{"name":"גבים, מכללת ספיר","englishName":"Gavim, Sapir College","lat":31.5071,"lon":34.5974,"alertTypeId":1,"areaNameHe":"עוטף עזה","areaNameEn":"Gaza Envelope","timeStamp":"2021-05-11 00:46:21"},{"name":"ניר עם","englishName":"Nir Am","lat":31.5184,"lon":34.5805,"alertTypeId":1,"areaNameHe":"עוטף עזה","areaNameEn":"Gaza Envelope","timeStamp":"2021-05-11 01:31:04"},{"name":"שדרות, איבים","englishName":"Sderot, Ibim","lat":31.5313,"lon":34.5984,"alertTypeId":1,"areaNameHe":"עוטף עזה","areaNameEn":"Gaza Envelope","timeStamp":"2021-05-11 01:31:04"},{"name":"דורות","englishName":"Dorot","lat":31.5072,"lon":34.6457,"alertTypeId":1,"areaNameHe":"מערב הנגב","areaNameEn":"Western Negev","timeStamp":"2021-05-11 01:31:04"},{"name":"חוות שיקמים","englishName":"Havat Shikmim","lat":31.5113,"lon":34.6339,"alertTypeId":1,"areaNameHe":"מערב הנגב","areaNameEn":"Western Negev","timeStamp":"2021-05-11 01:31:04"},{"name":"ארז","englishName":"Erez","lat":31.5597,"lon":34.565,"alertTypeId":1,"areaNameHe":"עוטף עזה","areaNameEn":"Gaza Envelope","timeStamp":"2021-05-11 01:31:09"},{"name":"מפלסים","englishName":"Mefalsim","lat":31.5022,"lon":34.5617,"alertTypeId":1,"areaNameHe":"עוטף עזה","areaNameEn":"Gaza Envelope","timeStamp":"2021-05-11 01:31:09"},{"name":"מטווח ניר עם","englishName":"Nir Am Shooting Range","lat":31.5128,"lon":34.5543,"alertTypeId":1,"areaNameHe":"עוטף עזה","areaNameEn":"Gaza Envelope","timeStamp":"2021-05-11 01:31:09"},{"name":"גבים, מכללת ספיר","englishName":"Gavim, Sapir College","lat":31.5071,"lon":34.5974,"alertTypeId":1,"areaNameHe":"עוטף עזה","areaNameEn":"Gaza Envelope","timeStamp":"2021-05-11 01:31:20"},{"name":"מטווח ניר עם","englishName":"Nir Am Shooting Range","lat":31.5128,"lon":34.5543,"alertTypeId":1,"areaNameHe":"עוטף עזה","areaNameEn":"Gaza Envelope","timeStamp":"2021-05-11 01:34:08"},{"name":"יכיני","englishName":"Yakhini","lat":31.4822,"lon":34.5986,"alertTypeId":1,"areaNameHe":"עוטף עזה","areaNameEn":"Gaza Envelope","timeStamp":"2021-05-11 01:34:08"},{"name":"כפר עזה","englishName":"Kfar Azza","lat":31.4834,"lon":34.5323,"alertTypeId":1,"areaNameHe":"עוטף עזה","areaNameEn":"Gaza Envelope","timeStamp":"2021-05-11 01:34:08"},{"name":"ניר משה","englishName":"Nir Moshe","lat":31.4775,"lon":34.6301,"alertTypeId":1,"areaNameHe":"מערב הנגב","areaNameEn":"Western Negev","timeStamp":"2021-05-11 01:34:08"},{"name":"ניר עקיבא","englishName":"Nir Akiva","lat":31.4699,"lon":34.6462,"alertTypeId":1,"areaNameHe":"מערב הנגב","areaNameEn":"Western Negev","timeStamp":"2021-05-11 01:34:08"},{"name":"ניר עם","englishName":"Nir Am","lat":31.5184,"lon":34.5805,"alertTypeId":1,"areaNameHe":"עוטף עזה","areaNameEn":"Gaza Envelope","timeStamp":"2021-05-11 01:34:08"},{"name":"גבים, מכללת ספיר","englishName":"Gavim, Sapir College","lat":31.5071,"lon":34.5974,"alertTypeId":1,"areaNameHe":"עוטף עזה","areaNameEn":"Gaza Envelope","timeStamp":"2021-05-11 01:34:08"},{"name":"שדרות, איבים","englishName":"Sderot, Ibim","lat":31.5313,"lon":34.5984,"alertTypeId":1,"areaNameHe":"עוטף עזה","areaNameEn":"Gaza Envelope","timeStamp":"2021-05-11 01:34:08"},{"name":"דורות","englishName":"Dorot","lat":31.5072,"lon":34.6457,"alertTypeId":1,"areaNameHe":"מערב הנגב","areaNameEn":"Western Negev","timeStamp":"2021-05-11 01:34:08"},{"name":"חוות שיקמים","englishName":"Havat Shikmim","lat":31.5113,"lon":34.6339,"alertTypeId":1,"areaNameHe":"מערב הנגב","areaNameEn":"Western Negev","timeStamp":"2021-05-11 01:34:08"},{"name":"מפלסים","englishName":"Mefalsim","lat":31.5022,"lon":34.5617,"alertTypeId":1,"areaNameHe":"עוטף עזה","areaNameEn":"Gaza Envelope","timeStamp":"2021-05-11 01:34:08"},{"name":"סעד","englishName":"Sa'ad","lat":31.4702,"lon":34.5344,"alertTypeId":1,"areaNameHe":"עוטף עזה","areaNameEn":"Gaza Envelope","timeStamp":"2021-05-11 01:34:18"},{"name":"גבים, מכללת ספיר","englishName":"Gavim, Sapir College","lat":31.5071,"lon":34.5974,"alertTypeId":1,"areaNameHe":"עוטף עזה","areaNameEn":"Gaza Envelope","timeStamp":"2021-05-11 01:48:31"},{"name":"נירים","englishName":"Nirim","lat":31.3357,"lon":34.3941,"alertTypeId":1,"areaNameHe":"עוטף עזה","areaNameEn":"Gaza Envelope","timeStamp":"2021-05-11 02:10:05"},{"name":"עין השלושה","englishName":"Ein HaShlosha","lat":31.3517,"lon":34.4035,"alertTypeId":1,"areaNameHe":"עוטף עזה","areaNameEn":"Gaza Envelope","timeStamp":"2021-05-11 02:10:10"},{"name":"מפלסים","englishName":"Mefalsim","lat":31.5022,"lon":34.5617,"alertTypeId":1,"areaNameHe":"עוטף עזה","areaNameEn":"Gaza Envelope","timeStamp":"2021-05-11 02:47:12"},{"name":"מפלסים","englishName":"Mefalsim","lat":31.5022,"lon":34.5617,"alertTypeId":1,"areaNameHe":"עוטף עזה","areaNameEn":"Gaza Envelope","timeStamp":"2021-05-11 03:05:25"},{"name":"מטווח ניר עם","englishName":"Nir Am Shooting Range","lat":31.5128,"lon":34.5543,"alertTypeId":1,"areaNameHe":"עוטף עזה","areaNameEn":"Gaza Envelope","timeStamp":"2021-05-11 03:05:25"},{"name":"גבים, מכללת ספיר","englishName":"Gavim, Sapir College","lat":31.5071,"lon":34.5974,"alertTypeId":1,"areaNameHe":"עוטף עזה","areaNameEn":"Gaza Envelope","timeStamp":"2021-05-11 03:05:25"},{"name":"ניר עם","englishName":"Nir Am","lat":31.5184,"lon":34.5805,"alertTypeId":1,"areaNameHe":"עוטף עזה","areaNameEn":"Gaza Envelope","timeStamp":"2021-05-11 03:05:25"},{"name":"שדרות, איבים","englishName":"Sderot, Ibim","lat":31.5313,"lon":34.5984,"alertTypeId":1,"areaNameHe":"עוטף עזה","areaNameEn":"Gaza Envelope","timeStamp":"2021-05-11 03:05:25"},{"name":"חוות שיקמים","englishName":"Havat Shikmim","lat":31.5113,"lon":34.6339,"alertTypeId":1,"areaNameHe":"מערב הנגב","areaNameEn":"Western Negev","timeStamp":"2021-05-11 03:05:30"},{"name":"ארז","englishName":"Erez","lat":31.5597,"lon":34.565,"alertTypeId":1,"areaNameHe":"עוטף עזה","areaNameEn":"Gaza Envelope","timeStamp":"2021-05-11 03:05:36"},{"name":"שדרות, איבים","englishName":"Sderot, Ibim","lat":31.5313,"lon":34.5984,"alertTypeId":1,"areaNameHe":"עוטף עזה","areaNameEn":"Gaza Envelope","timeStamp":"2021-05-11 03:47:58"},{"name":"ניר עם","englishName":"Nir Am","lat":31.5184,"lon":34.5805,"alertTypeId":1,"areaNameHe":"עוטף עזה","areaNameEn":"Gaza Envelope","timeStamp":"2021-05-11 03:48:03"},{"name":"ארז","englishName":"Erez","lat":31.5597,"lon":34.565,"alertTypeId":1,"areaNameHe":"עוטף עזה","areaNameEn":"Gaza Envelope","timeStamp":"2021-05-11 03:48:03"},{"name":"מטווח ניר עם","englishName":"Nir Am Shooting Range","lat":31.5128,"lon":34.5543,"alertTypeId":1,"areaNameHe":"עוטף עזה","areaNameEn":"Gaza Envelope","timeStamp":"2021-05-11 03:48:03"},{"name":"כרם שלום","englishName":"Kerem Shalom","lat":31.2283,"lon":34.2846,"alertTypeId":1,"areaNameHe":"עוטף עזה","areaNameEn":"Gaza Envelope","timeStamp":"2021-05-11 03:49:15"},{"name":"כרם שלום","englishName":"Kerem Shalom","lat":31.2283,"lon":34.2846,"alertTypeId":1,"areaNameHe":"עוטף עזה","areaNameEn":"Gaza Envelope","timeStamp":"2021-05-11 04:01:39"},{"name":"כפר מימון ותושיה","englishName":"Kfar Maimon and Tushia","lat":31.4324,"lon":34.5384,"alertTypeId":1,"areaNameHe":"עוטף עזה","areaNameEn":"Gaza Envelope","timeStamp":"2021-05-11 04:06:45"},{"name":"שוקדה","englishName":"Shokeda","lat":31.4221,"lon":34.5244,"alertTypeId":1,"areaNameHe":"עוטף עזה","areaNameEn":"Gaza Envelope","timeStamp":"2021-05-11 04:06:45"},{"name":"נתיבות","englishName":"Netivot","lat":31.4232,"lon":34.5953,"alertTypeId":1,"areaNameHe":"מערב הנגב","areaNameEn":"Western Negev","timeStamp":"2021-05-11 04:06:45"},{"name":"בארי","englishName":"Be'eri","lat":31.4245,"lon":34.4926,"alertTypeId":1,"areaNameHe":"עוטף עזה","areaNameEn":"Gaza Envelope","timeStamp":"2021-05-11 04:06:55"},{"name":"עלומים","englishName":"Alumim","lat":31.453,"lon":34.5147,"alertTypeId":1,"areaNameHe":"עוטף עזה","areaNameEn":"Gaza Envelope","timeStamp":"2021-05-11 04:06:55"},{"name":"סעד","englishName":"Sa'ad","lat":31.4702,"lon":34.5344,"alertTypeId":1,"areaNameHe":"עוטף עזה","areaNameEn":"Gaza Envelope","timeStamp":"2021-05-11 04:07:06"},{"name":"גברעם","englishName":"Gvaram","lat":31.5915,"lon":34.6122,"alertTypeId":1,"areaNameHe":"עוטף עזה","areaNameEn":"Gaza Envelope","timeStamp":"2021-05-11 04:11:34"},{"name":"נתיב העשרה","englishName":"Netiv HaAssara","lat":31.5724,"lon":34.5393,"alertTypeId":1,"areaNameHe":"עוטף עזה","areaNameEn":"Gaza Envelope","timeStamp":"2021-05-11 04:11:34"},{"name":"זיקים","englishName":"Zikim","lat":31.6072,"lon":34.521,"alertTypeId":1,"areaNameHe":"עוטף עזה","areaNameEn":"Gaza Envelope","timeStamp":"2021-05-11 05:00:52"},{"name":"אזור תעשייה הדרומי אשקלון","englishName":"Ashkelon Southern Industrial Zone","lat":31.6361,"lon":34.5545,"alertTypeId":1,"areaNameHe":"מערב לכיש","areaNameEn":"Western Lakhish","timeStamp":"2021-05-11 05:00:57"},{"name":"כרמיה","englishName":"Karmia","lat":31.6027,"lon":34.5404,"alertTypeId":1,"areaNameHe":"עוטף עזה","areaNameEn":"Gaza Envelope","timeStamp":"2021-05-11 05:01:08"},{"name":"נתיב העשרה","englishName":"Netiv HaAssara","lat":31.5724,"lon":34.5393,"alertTypeId":1,"areaNameHe":"עוטף עזה","areaNameEn":"Gaza Envelope","timeStamp":"2021-05-11 05:01:08"},{"name":"מבקיעים","englishName":"Mavki'im","lat":31.6225,"lon":34.5774,"alertTypeId":1,"areaNameHe":"מערב לכיש","areaNameEn":"Western Lakhish","timeStamp":"2021-05-11 05:01:08"},